#Unit,Date,PageNum,PageID,Place1,Place2,Place3,activity,count,Place1_Geo,Place2_Geo,Place3_Geo,Location,longitude,latitude,name
1 CAVALRY DIVISION: 9 (Queen's Royal) Lancers,1914-08-21,4 5,AWD00001wz AWD00001rz,Mons,Binche,Harmignies,activity:attack,1.0,"[3.9519580000000003, 50.454956799999998, 'Mons']","[4.1651629999999997, 50.410300399999997, 'Binche']","[4.0177898999999995, 50.407644599999998, 'Harmignies']","[3.9519580000000003, 50.454956799999998, 'Mons']",3.9519580000000003,50.4549568,Mons
1 CAVALRY DIVISION: 9 (Queen's Royal) Lancers,1914-08-24,5 6,AWD00001rz AWD00001x2,Thulin,Audregnies,,activity:attack,8.0,"[3.7393228999999999, 50.429283200000008, 'Thulin']","[3.7202864999999998, 50.381600799999994, 'Audregnies']",,"[3.7393228999999999, 50.429283200000008, 'Thulin']",3.7393229,50.42928320000001,Thulin
1 CAVALRY DIVISION: 9 (Queen's Royal) Lancers,1914-09-06,16,AWD00001vy,Pecy,Gastins,La Noue,activity:attack,1.0,"[3.0822099999999999, 48.65551, 'Pecy']","[3.0205481000000001, 48.628248499999998, 'Gastins']","[3.6108788999999999, 48.742849, 'La Noue']","[3.0822099999999999, 48.65551, 'Pecy']",3.08221,48.65551,Pecy
1 CAVALRY DIVISION: 9 (Queen's Royal) Lancers,1914-09-07,16 17,AWD00001vy AWD00001qw,Pecy,Le Buisson Bailly,Feraubry,activity:attack,5.0,"[3.0822099999999999, 48.65551, 'Pecy']","[2.2653843999999999, 48.746781899999995, 'Verrières-le-Buisson']","[3.2676799999999999, 48.76041, 'Feraubry']","[3.0822099999999999, 48.65551, 'Pecy']",3.08221,48.65551,Pecy
1 CAVALRY DIVISION: 9 (Queen's Royal) Lancers,1914-09-07,17,AWD00001qw,Le Buisson Bailly,Sablonnieres,Bassevelle,activity:attack,5.0,"[2.2653843999999999, 48.746781899999995, 'Verrières-le-Buisson']","[3.2970199999999998, 48.875709999999998, 'Sablonnieres']","[3.2877267999999997, 48.927182700000003, 'Bassevelle']","[2.2653843999999999, 48.746781899999995, 'Verrières-le-Buisson']",2.2653844,48.746781899999995,Verrières-le-Buisson
1 CAVALRY DIVISION: 9 (Queen's Royal) Lancers,1914-09-14,17 18,AWD00001qw AWD00001ur,Longueval,Pargnan,Bourg,activity:attack,10.0,"[2.8039931999999999, 50.026224299999996, 'Longueval']","[3.6914712000000001, 49.400321399999996, 'Pargnan']","[3.6540786000000001, 49.396351600000003, 'Bourg-et-Comin']","[2.8039931999999999, 50.026224299999996, 'Longueval']",2.8039932,50.026224299999996,Longueval
1 CAVALRY DIVISION: 9 (Queen's Royal) Lancers,1914-09-14,18,AWD00001ur,Pargnan,Soupir,Vendresse,activity:attack,2.0,"[3.6914712000000001, 49.400321399999996, 'Pargnan']","[3.5939800000000002, 49.406300000000002, 'Soupir']","[4.7929447999999999, 49.603653999999999, 'Vendresse']","[3.6914712000000001, 49.400321399999996, 'Pargnan']",3.6914712,49.400321399999996,Pargnan
1 CAVALRY DIVISION: 9 (Queen's Royal) Lancers,1914-09-16,18,AWD00001ur,Chavonne,,,activity:attack,1.0,"[3.5695699999999997, 49.405099999999997, 'Chavonne']",,,"[3.5695699999999997, 49.405099999999997, 'Chavonne']",3.5695699999999997,49.4051,Chavonne
1 CAVALRY DIVISION: 9 (Queen's Royal) Lancers,1914-09-16,18,AWD00001ur,Chavonne,,,activity:attack,4.0,"[3.5695699999999997, 49.405099999999997, 'Chavonne']",,,"[3.5695699999999997, 49.405099999999997, 'Chavonne']",3.5695699999999997,49.4051,Chavonne
1 CAVALRY DIVISION: 9 (Queen's Royal) Lancers,1914-09-17,18,AWD00001ur,Chavonne,,,activity:attack,2.0,"[3.5695699999999997, 49.405099999999997, 'Chavonne']",,,"[3.5695699999999997, 49.405099999999997, 'Chavonne']",3.5695699999999997,49.4051,Chavonne
1 CAVALRY DIVISION: 9 (Queen's Royal) Lancers,1914-09-30,20 21,AWD00001ui AWD00001q1,Fretoy,Longueval,,activity:attack,1.0,"[2.8658097999999996, 47.299448799999993, 'Fretoy']","[2.8039931999999999, 50.026224299999996, 'Longueval']",,"[2.8658097999999996, 47.299448799999993, 'Fretoy']",2.8658097999999996,47.29944879999999,Fretoy
1 CAVALRY DIVISION: 9 (Queen's Royal) Lancers,1914-10-07,26,AWD00001vs,Malpart,Montdidier,,activity:attack,1.0,"[2.4977478999999998, 49.692307399999997, 'Malpart']","[2.5701959999999997, 49.646020399999998, 'Montdidier']",,"[2.4977478999999998, 49.692307399999997, 'Malpart']",2.4977479,49.6923074,Malpart
1 CAVALRY DIVISION: 9 (Queen's Royal) Lancers,1914-10-11,27,AWD00001mh,Vierhouck,Houdain,Verterue,activity:attack,3.0,,"[2.5367842, 50.453812599999999, 'Houdain']","[5.5060689000000007, 49.716401700000006, 'Verterme']","[2.5367842, 50.453812599999999, 'Houdain']",2.5367842,50.4538126,Houdain
1 CAVALRY DIVISION: 9 (Queen's Royal) Lancers,1914-10-12,27,AWD00001mh,Strazeele,Vieux Berquin,,activity:attack,5.0,"[2.6322141000000001, 50.726931399999998, 'Strazeele']","[2.6437922999999999, 50.694805200000005, 'Vieux-Berquin']",,"[2.6322141000000001, 50.726931399999998, 'Strazeele']",2.6322141,50.7269314,Strazeele
1 CAVALRY DIVISION: 9 (Queen's Royal) Lancers,1914-10-13,27 28,AWD00001mh AWD00001pm,Thieushouck,Thieushoer,Hazebrouck,activity:attack,7.0,,,"[2.5360331, 50.722611299999997, 'Hazebrouck']","[2.5360331, 50.722611299999997, 'Hazebrouck']",2.5360331,50.7226113,Hazebrouck
1 CAVALRY DIVISION: 9 (Queen's Royal) Lancers,1914-10-16,28,AWD00001pm,Lys,Locre,,activity:attack,1.0,"[-0.35256009999999999, 43.130034100000003, 'Lys']","[11.232014100000001, 45.711117600000001, 'Locre']",,"[-0.35256009999999999, 43.130034100000003, 'Lys']",-0.3525601,43.1300341,Lys
1 CAVALRY DIVISION: 9 (Queen's Royal) Lancers,1914-10-17,28 29,AWD00001pm AWD00001sh,Lys,Houplines,Neuve Eglise,activity:attack,2.0,"[-0.35256009999999999, 43.130034100000003, 'Lys']","[2.9104188999999998, 50.690458899999996, 'Houplines']","[2.9834299999999998, 44.927869999999999, 'Neuveglise']","[-0.35256009999999999, 43.130034100000003, 'Lys']",-0.3525601,43.1300341,Lys
1 CAVALRY DIVISION: 9 (Queen's Royal) Lancers,1914-10-18,29,AWD00001sh,Ploegsteert,Pont Rouge,,activity:attack,5.0,"[2.8803139, 50.726220399999995, 'Ploegsteert']","[5.8699868000000004, 46.018050299999999, 'Pont Rouge']",,"[2.8803139, 50.726220399999995, 'Ploegsteert']",2.8803139,50.726220399999995,Ploegsteert
1 CAVALRY DIVISION: 9 (Queen's Royal) Lancers,1914-10-21,30 31,AWD00001qb AWD00001ud,Wulverghem,Ploegsteert,Messines,activity:attack,1.0,"[2.85243, 50.760210000000001, 'Wulvergem']","[2.8803139, 50.726220399999995, 'Ploegsteert']","[0.44687090000000002, 44.416204399999998, 'Messines']","[2.85243, 50.760210000000001, 'Wulvergem']",2.85243,50.76021,Wulvergem
1 CAVALRY DIVISION: 9 (Queen's Royal) Lancers,1914-10-28,32,AWD00001pk,La Couture,Neuve Chapelle,,activity:attack,4.0,"[2.7129084999999997, 50.5801874, 'La Couture']","[2.7799148999999996, 50.583883, 'Neuve-Chapelle']",,"[2.7129084999999997, 50.5801874, 'La Couture']",2.7129084999999997,50.5801874,La Couture
1 CAVALRY DIVISION: 9 (Queen's Royal) Lancers,1914-10-30,33,AWD00001v0,Neuve Eglise,Messines,,activity:attack,1.0,"[2.9834299999999998, 44.927869999999999, 'Neuveglise']","[0.44687090000000002, 44.416204399999998, 'Messines']",,"[2.9834299999999998, 44.927869999999999, 'Neuveglise']",2.98343,44.92787,Neuveglise
1 CAVALRY DIVISION: 9 (Queen's Royal) Lancers,1914-11-12,50,AWD00001s8,Ypres,,,activity:attack,1.0,"[2.8846047000000001, 50.852194700000005, 'Ypres']",,,"[2.8846047000000001, 50.852194700000005, 'Ypres']",2.8846047,50.852194700000005,Ypres
1 CAVALRY DIVISION: 9 (Queen's Royal) Lancers,1914-11-14,50 51,AWD00001s8 AWD00001mk,Zillebeke,,,activity:attack,1.0,"[2.9224028999999998, 50.834638500000004, 'Zillebeke']",,,"[2.9224028999999998, 50.834638500000004, 'Zillebeke']",2.9224029,50.834638500000004,Zillebeke
1 CAVALRY DIVISION: 9 (Queen's Royal) Lancers,1914-11-17,51 52,AWD00001mk AWD00001x4,Menin,Chateau Reichenburg,,activity:attack,3.0,"[3.1156565000000001, 50.796987899999998, 'Menin']","[1.8217209999999999, 49.285037799999998, 'Trie-Château']",,"[3.1156565000000001, 50.796987899999998, 'Menin']",3.1156565,50.7969879,Menin
1 CAVALRY DIVISION: 9 (Queen's Royal) Lancers,1915-02-09,72,AWD00001q3,Meteren,,,activity:attack,1.0,"[5.2832385999999998, 51.863605, 'Meteren']",,,"[5.2832385999999998, 51.863605, 'Meteren']",5.2832386,51.863605,Meteren
1 CAVALRY DIVISION: 9 (Queen's Royal) Lancers,1915-02-19,73,AWD00001u8,Meteren,,,activity:attack,2.0,"[5.2832385999999998, 51.863605, 'Meteren']",,,"[5.2832385999999998, 51.863605, 'Meteren']",5.2832386,51.863605,Meteren
1 CAVALRY DIVISION: 9 (Queen's Royal) Lancers,1915-03-04,77 78,AWD00001os AWD00001pc,Zillebeke,Ecole de Bienfaisance,Ecole de Bien,activity:attack,2.0,"[2.9224028999999998, 50.834638500000004, 'Zillebeke']",,,"[2.9224028999999998, 50.834638500000004, 'Zillebeke']",2.9224029,50.834638500000004,Zillebeke
1 CAVALRY DIVISION: 9 (Queen's Royal) Lancers,1915-04-06,83,AWD00001s9,Meteren,,,activity:attack,1.0,"[5.2832385999999998, 51.863605, 'Meteren']",,,"[5.2832385999999998, 51.863605, 'Meteren']",5.2832386,51.863605,Meteren
1 CAVALRY DIVISION: 9 (Queen's Royal) Lancers,1915-04-23,84 85,AWD00001v5 AWD00001nd,Brielen,Poperinghe,,activity:attack,1.0,"[2.8475388000000001, 50.8689046, 'Brielen']","[2.7265900000000003, 50.853859999999997, 'Poperinge']",,"[2.8475388000000001, 50.8689046, 'Brielen']",2.8475388,50.8689046,Brielen
1 CAVALRY DIVISION: 9 (Queen's Royal) Lancers,1915-04-27,86,AWD00001xw,Woesten,,,activity:attack,1.0,"[2.7903755000000001, 50.900419399999997, 'Woesten']",,,"[2.7903755000000001, 50.900419399999997, 'Woesten']",2.7903755,50.9004194,Woesten
1 CAVALRY DIVISION: 9 (Queen's Royal) Lancers,1915-05-23,96 97,AWD00001pr AWD00001r7,Ypres,Hooge,,activity:attack,1.0,"[2.8846047000000001, 50.852194700000005, 'Ypres']","[8.5455245268742352, 54.568344750000001, 'Hooge']",,"[2.8846047000000001, 50.852194700000005, 'Ypres']",2.8846047,50.852194700000005,Ypres
1 CAVALRY DIVISION: 9 (Queen's Royal) Lancers,1915-05-24,97,AWD00001r7,Hooge,,,activity:attack,1.0,"[8.5455245268742352, 54.568344750000001, 'Hooge']",,,"[8.5455245268742352, 54.568344750000001, 'Hooge']",8.545524526874235,54.56834475,Hooge
1 CAVALRY DIVISION: 9 (Queen's Royal) Lancers,1915-09-12,125,AWD00001vx,Zeggers Cappel,,,activity:attack,1.0,"[2.5075845999999999, 50.928272799999995, 'West-Cappel']",,,"[2.5075845999999999, 50.928272799999995, 'West-Cappel']",2.5075846,50.928272799999995,West-Cappel
1 CAVALRY DIVISION: 9 (Queen's Royal) Lancers,1915-11-05,135,AWD00001qn,Elnes,,,activity:attack,1.0,"[2.1255700000000002, 50.689520000000002, 'Elnes']",,,"[2.1255700000000002, 50.689520000000002, 'Elnes']",2.12557,50.68952,Elnes
1 CAVALRY DIVISION: 9 (Queen's Royal) Lancers,1917-04-11,248,AWD00001se,Greenland Hill,Hervin Farm,Fampoux,activity:attack,7.0,,,"[2.8686432000000002, 50.302264899999997, 'Fampoux']","[2.8686432000000002, 50.302264899999997, 'Fampoux']",2.8686432,50.3022649,Fampoux
1 CAVALRY DIVISION: 9 (Queen's Royal) Lancers,1917-04-12,248 249 255,AWD00001se AWD00001rs AWD00001vz,Arras,Blangy,Frevin Capelle,activity:attack,3.0,"[2.7772210999999998, 50.291047999999996, 'Arras']","[2.8007122000000004, 50.301505499999998, 'Saint-Laurent-Blangy']","[2.6347999999999998, 50.348410000000001, 'Frevin-Capelle']","[2.7772210999999998, 50.291047999999996, 'Arras']",2.7772210999999998,50.291047999999996,Arras
1 CAVALRY DIVISION: 9 (Queen's Royal) Lancers,1917-04-30,253 254 255,AWD00001mc AWD00001ry AWD00001vz,Samer,Le Biez,Hersin,activity:attack,1.0,"[1.7469188000000002, 50.639271700000002, 'Samer']","[-2.0264053, 48.1804159, 'Le Biez']","[2.6484953999999998, 50.447235999999997, 'Hersin-Coupigny']","[1.7469188000000002, 50.639271700000002, 'Samer']",1.7469188000000002,50.6392717,Samer
1 CAVALRY DIVISION: 9 (Queen's Royal) Lancers,1917-07-31,280 281 282 283 284 285 286,AWD00001tj AWD00001te AWD00001mm AWD00001xn AWD00001um AWD00001tt AWD00001nz,Aconite Trench,Absalom,Vendin Alley,activity:attack,8.0,"[-1.013536, 51.494467, 'Trench Green']",,"[2.6042300000000003, 50.546199999999999, 'Vendin-lès-Béthune']","[-1.013536, 51.494467, 'Trench Green']",-1.013536,51.494467,Trench Green
1 CAVALRY DIVISION: 9 (Queen's Royal) Lancers,1917-08-24,292,AWD00001sx,Merville,,,activity:attack,1.0,"[2.6387499000000001, 50.6436584, 'Merville']",,,"[2.6387499000000001, 50.6436584, 'Merville']",2.6387499,50.6436584,Merville
1 CAVALRY DIVISION: 9 (Queen's Royal) Lancers,1917-10-03,300,AWD00001un,Bernieulles,,,activity:attack,1.0,"[1.77285, 50.554600000000001, 'Bernieulles']",,,"[1.77285, 50.554600000000001, 'Bernieulles']",1.77285,50.5546,Bernieulles
1 CAVALRY DIVISION: 9 (Queen's Royal) Lancers,1917-11-20,309 310,AWD00001mx AWD00001ol,Flesguieres,Canal de l'Escaut,Noyelles,activity:attack,7.0,"[1.7594900000000002, 44.81324, 'Falguieres']",,"[2.3966668999999996, 50.461525899999998, 'Noyelles']","[1.7594900000000002, 44.81324, 'Falguieres']",1.7594900000000002,44.81324,Falguieres
1 CAVALRY DIVISION: 9 (Queen's Royal) Lancers,1917-11-21,310 311 312,AWD00001ol AWD00001tp AWD00001ro,Bois de Neuf,Cantaing,Noyelles,activity:attack,14.0,"[2.7932915, 48.915995500000001, 'Le Bois Neuf']","[3.1572832000000002, 50.147437400000001, 'Cantaing-sur-Escaut']","[2.3966668999999996, 50.461525899999998, 'Noyelles']","[2.7932915, 48.915995500000001, 'Le Bois Neuf']",2.7932915,48.9159955,Le Bois Neuf
1 CAVALRY DIVISION: 9 (Queen's Royal) Lancers,1917-11-23,313,AWD00001tq,Bourlon Wood,Fontaine,Metz-En-Couture,activity:attack,1.0,,"[1.2610828999999999, 49.186077600000004, 'Fontaine-Bellenger']","[3.0643956000000001, 50.067371899999998, 'Metz-en-Couture']","[1.2610828999999999, 49.186077600000004, 'Fontaine-Bellenger']",1.2610829,49.186077600000004,Fontaine-Bellenger
1 CAVALRY DIVISION: 9 (Queen's Royal) Lancers,1918-01-18,328 333,AWD00001xo AWD00001rp,Doingt,Little Bill,Ascension Wood,activity:attack,1.0,"[2.9659142000000003, 49.922705700000002, 'Doingt']","[-0.64190360000000002, 51.8946884, 'Little Billington']",,"[2.9659142000000003, 49.922705700000002, 'Doingt']",2.9659142000000003,49.9227057,Doingt
1 CAVALRY DIVISION: 9 (Queen's Royal) Lancers,1918-01-20,329 333 334,AWD00001tr AWD00001rp AWD00001q4,Ascension Farm,A2 Sub Sector,Doingt,activity:attack,3.0,,,"[2.9659142000000003, 49.922705700000002, 'Doingt']","[2.9659142000000003, 49.922705700000002, 'Doingt']",2.9659142000000003,49.9227057,Doingt
1 CAVALRY DIVISION: 9 (Queen's Royal) Lancers,1918-01-21,334,AWD00001q4,Le Verguier,Vadencourt,A2 Sub Sector,activity:attack,1.0,"[3.1705771, 49.924188899999997, 'Le Verguier']","[3.5797222, 49.93, 'Vadencourt']",,"[3.1705771, 49.924188899999997, 'Le Verguier']",3.1705771,49.9241889,Le Verguier
1 CAVALRY DIVISION: 9 (Queen's Royal) Lancers,1918-01-24,336,AWD00001w5,Vadencourt,Buisson Ridge,,activity:attack,1.0,"[3.5797222, 49.93, 'Vadencourt']","[2.2653843999999999, 48.746781899999995, 'Verrières-le-Buisson']",,"[3.5797222, 49.93, 'Vadencourt']",3.5797222,49.93,Vadencourt
1 CAVALRY DIVISION: 9 (Queen's Royal) Lancers,1918-03-21,345,AWD00001xa,Doingt,Le Mesnil,,activity:attack,2.0,"[2.9659142000000003, 49.922705700000002, 'Doingt']","[-1.6958746999999998, 49.3692396, 'Le Mesnil']",,"[2.9659142000000003, 49.922705700000002, 'Doingt']",2.9659142000000003,49.9227057,Doingt
1 CAVALRY DIVISION: 9 (Queen's Royal) Lancers,1918-03-27,346,AWD00001sg,Mericourt,Treux,,activity:attack,4.0,"[2.5654499999999998, 49.952129999999997, ""Mericourt-l'Abbe""]","[2.5909646, 49.957839, 'Treux']",,"[2.5654499999999998, 49.952129999999997, ""Mericourt-l'Abbe""]",2.56545,49.95213,Mericourt-l'Abbe
1 CAVALRY DIVISION: 9 (Queen's Royal) Lancers,1918-08-08,372 373 374,AWD00001t8 AWD00001vu AWD00001mg,Guillaucourt,Wiencourt,Caix,activity:attack,3.0,"[2.6287896000000002, 49.842454700000005, 'Guillaucourt']","[2.6116834999999998, 49.845958899999999, ""Wiencourt-l'Équipée""]","[2.6462567000000004, 49.816769399999998, 'Caix']","[2.6287896000000002, 49.842454700000005, 'Guillaucourt']",2.6287896,49.842454700000005,Guillaucourt
1 CAVALRY DIVISION: 9 (Queen's Royal) Lancers,1918-08-09,374 375 376 377,AWD00001mg AWD00001re AWD00001q5 AWD00001xg,Caix,Vrely,Meharicourt,activity:attack,8.0,"[2.6462567000000004, 49.816769399999998, 'Caix']","[2.6948099999999999, 49.798900000000003, 'Vrely']","[2.7319599999999999, 49.797710000000002, 'Meharicourt']","[2.6462567000000004, 49.816769399999998, 'Caix']",2.6462567000000004,49.8167694,Caix
1 CAVALRY DIVISION: 9 (Queen's Royal) Lancers,1918-08-21,379 380,AWD00001ti AWD00001mw,Jewel Valley,Calveley Copse,Courcelles,activity:attack,1.0,,"[-0.80523030000000007, 51.042194700000003, 'Woodfield Copse']","[2.7741831000000001, 50.163614000000003, 'Courcelles-le-Comte']","[-0.80523030000000007, 51.042194700000003, 'Woodfield Copse']",-0.8052303000000001,51.0421947,Woodfield Copse
1 CAVALRY DIVISION: 9 (Queen's Royal) Lancers,1917-07-02,276,AWD00001w6,Calonne,,,activity:clearing,1.0,"[3.4371661000000002, 50.578325, 'Calonne']",,,"[3.4371661000000002, 50.578325, 'Calonne']",3.4371661000000002,50.578325,Calonne
1 CAVALRY DIVISION: 9 (Queen's Royal) Lancers,1914-08-21,4 5,AWD00001wz AWD00001rz,Mons,Binche,Harmignies,activity:enemy_activity,7.0,"[3.9519580000000003, 50.454956799999998, 'Mons']","[4.1651629999999997, 50.410300399999997, 'Binche']","[4.0177898999999995, 50.407644599999998, 'Harmignies']","[3.9519580000000003, 50.454956799999998, 'Mons']",3.9519580000000003,50.4549568,Mons
1 CAVALRY DIVISION: 9 (Queen's Royal) Lancers,1914-08-24,5 6,AWD00001rz AWD00001x2,Thulin,Audregnies,,activity:enemy_activity,3.0,"[3.7393228999999999, 50.429283200000008, 'Thulin']","[3.7202864999999998, 50.381600799999994, 'Audregnies']",,"[3.7393228999999999, 50.429283200000008, 'Thulin']",3.7393229,50.42928320000001,Thulin
1 CAVALRY DIVISION: 9 (Queen's Royal) Lancers,1914-08-25,6 7,AWD00001x2 AWD00001ph,Le Cateau,Flavy-le-Meldeux,Audregnies,activity:enemy_activity,2.0,"[3.5399375000000002, 50.101713399999994, 'Le Cateau-Cambrésis']","[3.0459495999999997, 49.686038200000006, 'Flavy-le-Meldeux']","[3.7202864999999998, 50.381600799999994, 'Audregnies']","[3.5399375000000002, 50.101713399999994, 'Le Cateau-Cambrésis']",3.5399375,50.101713399999994,Le Cateau-Cambrésis
1 CAVALRY DIVISION: 9 (Queen's Royal) Lancers,1914-08-26,6 7,AWD00001x2 AWD00001ph,Le Cateau,Maretz,Montigny,activity:enemy_activity,2.0,"[3.5399375000000002, 50.101713399999994, 'Le Cateau-Cambrésis']","[3.4181269999999997, 50.046955799999999, 'Maretz']","[3.4094023, 50.091136200000001, 'Montigny-en-Cambrésis']","[3.5399375000000002, 50.101713399999994, 'Le Cateau-Cambrésis']",3.5399375,50.101713399999994,Le Cateau-Cambrésis
1 CAVALRY DIVISION: 9 (Queen's Royal) Lancers,1914-08-30,8,AWD00001w1,Vieux Moulin,,,activity:enemy_activity,3.0,"[6.7259478000000001, 48.120250200000001, 'Vieux Moulin']",,,"[6.7259478000000001, 48.120250200000001, 'Vieux Moulin']",6.7259478,48.1202502,Vieux Moulin
1 CAVALRY DIVISION: 9 (Queen's Royal) Lancers,1914-09-02,16,AWD00001vy,Thieux,Mont l'Eveque,,activity:enemy_activity,4.0,"[2.6688472000000001, 49.007986899999999, 'Thieux']","[2.6333299999999999, 49.200000000000003, ""Mont-l'Eveque""]",,"[2.6688472000000001, 49.007986899999999, 'Thieux']",2.6688472,49.0079869,Thieux
1 CAVALRY DIVISION: 9 (Queen's Royal) Lancers,1914-09-06,16,AWD00001vy,Pecy,Gastins,La Noue,activity:enemy_activity,3.0,"[3.0822099999999999, 48.65551, 'Pecy']","[3.0205481000000001, 48.628248499999998, 'Gastins']","[3.6108788999999999, 48.742849, 'La Noue']","[3.0822099999999999, 48.65551, 'Pecy']",3.08221,48.65551,Pecy
1 CAVALRY DIVISION: 9 (Queen's Royal) Lancers,1914-09-07,16 17,AWD00001vy AWD00001qw,Pecy,Le Buisson Bailly,Feraubry,activity:enemy_activity,2.0,"[3.0822099999999999, 48.65551, 'Pecy']","[2.2653843999999999, 48.746781899999995, 'Verrières-le-Buisson']","[3.2676799999999999, 48.76041, 'Feraubry']","[3.0822099999999999, 48.65551, 'Pecy']",3.08221,48.65551,Pecy
1 CAVALRY DIVISION: 9 (Queen's Royal) Lancers,1914-09-07,17,AWD00001qw,Le Buisson Bailly,Sablonnieres,Bassevelle,activity:enemy_activity,1.0,"[2.2653843999999999, 48.746781899999995, 'Verrières-le-Buisson']","[3.2970199999999998, 48.875709999999998, 'Sablonnieres']","[3.2877267999999997, 48.927182700000003, 'Bassevelle']","[2.2653843999999999, 48.746781899999995, 'Verrières-le-Buisson']",2.2653844,48.746781899999995,Verrières-le-Buisson
1 CAVALRY DIVISION: 9 (Queen's Royal) Lancers,1914-09-11,17,AWD00001qw,Rozet-St-Albu,Arcy-St-Restitute,,activity:enemy_activity,1.0,"[3.3004800000000003, 49.194899999999997, 'Rozet-Saint-Albin']","[3.4641700000000002, 49.252380000000002, 'Arcy-Sainte-Restitue']",,"[3.3004800000000003, 49.194899999999997, 'Rozet-Saint-Albin']",3.3004800000000003,49.1949,Rozet-Saint-Albin
1 CAVALRY DIVISION: 9 (Queen's Royal) Lancers,1914-09-14,17 18,AWD00001qw AWD00001ur,Longueval,Pargnan,Bourg,activity:enemy_activity,3.0,"[2.8039931999999999, 50.026224299999996, 'Longueval']","[3.6914712000000001, 49.400321399999996, 'Pargnan']","[3.6540786000000001, 49.396351600000003, 'Bourg-et-Comin']","[2.8039931999999999, 50.026224299999996, 'Longueval']",2.8039932,50.026224299999996,Longueval
1 CAVALRY DIVISION: 9 (Queen's Royal) Lancers,1914-09-14,18,AWD00001ur,Pargnan,Soupir,Vendresse,activity:enemy_activity,3.0,"[3.6914712000000001, 49.400321399999996, 'Pargnan']","[3.5939800000000002, 49.406300000000002, 'Soupir']","[4.7929447999999999, 49.603653999999999, 'Vendresse']","[3.6914712000000001, 49.400321399999996, 'Pargnan']",3.6914712,49.400321399999996,Pargnan
1 CAVALRY DIVISION: 9 (Queen's Royal) Lancers,1914-09-30,20 21,AWD00001ui AWD00001q1,Fretoy,Longueval,,activity:enemy_activity,1.0,"[2.8658097999999996, 47.299448799999993, 'Fretoy']","[2.8039931999999999, 50.026224299999996, 'Longueval']",,"[2.8658097999999996, 47.299448799999993, 'Fretoy']",2.8658097999999996,47.29944879999999,Fretoy
1 CAVALRY DIVISION: 9 (Queen's Royal) Lancers,1914-10-11,27,AWD00001mh,Vierhouck,Houdain,Verterue,activity:enemy_activity,1.0,,"[2.5367842, 50.453812599999999, 'Houdain']","[5.5060689000000007, 49.716401700000006, 'Verterme']","[2.5367842, 50.453812599999999, 'Houdain']",2.5367842,50.4538126,Houdain
1 CAVALRY DIVISION: 9 (Queen's Royal) Lancers,1914-10-12,27,AWD00001mh,Strazeele,Vieux Berquin,,activity:enemy_activity,1.0,"[2.6322141000000001, 50.726931399999998, 'Strazeele']","[2.6437922999999999, 50.694805200000005, 'Vieux-Berquin']",,"[2.6322141000000001, 50.726931399999998, 'Strazeele']",2.6322141,50.7269314,Strazeele
1 CAVALRY DIVISION: 9 (Queen's Royal) Lancers,1914-10-16,28,AWD00001pm,Lys,Locre,,activity:enemy_activity,3.0,"[-0.35256009999999999, 43.130034100000003, 'Lys']","[11.232014100000001, 45.711117600000001, 'Locre']",,"[-0.35256009999999999, 43.130034100000003, 'Lys']",-0.3525601,43.1300341,Lys
1 CAVALRY DIVISION: 9 (Queen's Royal) Lancers,1914-10-20,30,AWD00001qb,Messines,Ploegsteert,Saint Ives,activity:enemy_activity,5.0,"[0.44687090000000002, 44.416204399999998, 'Messines']","[2.8803139, 50.726220399999995, 'Ploegsteert']","[-0.076560000000000003, 52.332509999999999, 'Saint Ives']","[0.44687090000000002, 44.416204399999998, 'Messines']",0.4468709,44.4162044,Messines
1 CAVALRY DIVISION: 9 (Queen's Royal) Lancers,1914-10-21,30 31,AWD00001qb AWD00001ud,Wulverghem,Ploegsteert,Messines,activity:enemy_activity,7.0,"[2.85243, 50.760210000000001, 'Wulvergem']","[2.8803139, 50.726220399999995, 'Ploegsteert']","[0.44687090000000002, 44.416204399999998, 'Messines']","[2.85243, 50.760210000000001, 'Wulvergem']",2.85243,50.76021,Wulvergem
1 CAVALRY DIVISION: 9 (Queen's Royal) Lancers,1914-10-22,31,AWD00001ud,Le Gheer,Wulverghem,Ploegsteert,activity:enemy_activity,4.0,"[2.9120512000000001, 50.731510399999998, 'Le Gheer']","[2.85243, 50.760210000000001, 'Wulvergem']","[2.8801899999999998, 50.726590000000002, 'Ploegsteert']","[2.9120512000000001, 50.731510399999998, 'Le Gheer']",2.9120512,50.7315104,Le Gheer
1 CAVALRY DIVISION: 9 (Queen's Royal) Lancers,1914-10-23,31,AWD00001ud,Wulverghem,Messines,,activity:enemy_activity,4.0,"[2.85243, 50.760210000000001, 'Wulvergem']","[0.44687090000000002, 44.416204399999998, 'Messines']",,"[2.85243, 50.760210000000001, 'Wulvergem']",2.85243,50.76021,Wulvergem
1 CAVALRY DIVISION: 9 (Queen's Royal) Lancers,1914-10-24,31,AWD00001ud,Messines,,,activity:enemy_activity,1.0,"[0.44687090000000002, 44.416204399999998, 'Messines']",,,"[0.44687090000000002, 44.416204399999998, 'Messines']",0.4468709,44.4162044,Messines
1 CAVALRY DIVISION: 9 (Queen's Royal) Lancers,1914-10-25,32,AWD00001pk,Wulverghem,,,activity:enemy_activity,2.0,"[2.85243, 50.760210000000001, 'Wulvergem']",,,"[2.85243, 50.760210000000001, 'Wulvergem']",2.85243,50.76021,Wulvergem
1 CAVALRY DIVISION: 9 (Queen's Royal) Lancers,1914-10-28,32,AWD00001pk,La Couture,Neuve Chapelle,,activity:enemy_activity,2.0,"[2.7129084999999997, 50.5801874, 'La Couture']","[2.7799148999999996, 50.583883, 'Neuve-Chapelle']",,"[2.7129084999999997, 50.5801874, 'La Couture']",2.7129084999999997,50.5801874,La Couture
1 CAVALRY DIVISION: 9 (Queen's Royal) Lancers,1914-10-30,33,AWD00001v0,Neuve Eglise,Messines,,activity:enemy_activity,1.0,"[2.9834299999999998, 44.927869999999999, 'Neuveglise']","[0.44687090000000002, 44.416204399999998, 'Messines']",,"[2.9834299999999998, 44.927869999999999, 'Neuveglise']",2.98343,44.92787,Neuveglise
1 CAVALRY DIVISION: 9 (Queen's Royal) Lancers,1914-10-31,33 34 38 40 41 42,AWD00001v0 AWD00001s2 AWD00001sr AWD00001pu AWD00001qp AWD00001s4,River Lys,Messines,,activity:enemy_activity,3.0,,"[0.44687090000000002, 44.416204399999998, 'Messines']",,"[0.44687090000000002, 44.416204399999998, 'Messines']",0.4468709,44.4162044,Messines
1 CAVALRY DIVISION: 9 (Queen's Royal) Lancers,1914-11-05,47 48,AWD00001qh AWD00001ny,Meteren,Lindenhoek,Messines,activity:enemy_activity,2.0,"[5.2832385999999998, 51.863605, 'Meteren']","[2.8166699999999998, 50.766669999999998, 'Lindenhoek']","[0.44687090000000002, 44.416204399999998, 'Messines']","[5.2832385999999998, 51.863605, 'Meteren']",5.2832386,51.863605,Meteren
1 CAVALRY DIVISION: 9 (Queen's Royal) Lancers,1914-11-06,48,AWD00001ny,Wulverghem,Neuve Eglise,Lindenhoek,activity:enemy_activity,1.0,"[2.85243, 50.760210000000001, 'Wulvergem']","[2.9834299999999998, 44.927869999999999, 'Neuveglise']","[2.8166699999999998, 50.766669999999998, 'Lindenhoek']","[2.85243, 50.760210000000001, 'Wulvergem']",2.85243,50.76021,Wulvergem
1 CAVALRY DIVISION: 9 (Queen's Royal) Lancers,1914-11-07,48 49,AWD00001ny AWD00001so,Wulverghem,Meteren,,activity:enemy_activity,1.0,"[2.85243, 50.760210000000001, 'Wulvergem']","[5.2832385999999998, 51.863605, 'Meteren']",,"[2.85243, 50.760210000000001, 'Wulvergem']",2.85243,50.76021,Wulvergem
1 CAVALRY DIVISION: 9 (Queen's Royal) Lancers,1914-11-12,50,AWD00001s8,Ypres,,,activity:enemy_activity,3.0,"[2.8846047000000001, 50.852194700000005, 'Ypres']",,,"[2.8846047000000001, 50.852194700000005, 'Ypres']",2.8846047,50.852194700000005,Ypres
1 CAVALRY DIVISION: 9 (Queen's Royal) Lancers,1914-11-13,50,AWD00001s8,Ypres,Zillebeke,,activity:enemy_activity,2.0,"[2.8846047000000001, 50.852194700000005, 'Ypres']","[2.9224028999999998, 50.834638500000004, 'Zillebeke']",,"[2.8846047000000001, 50.852194700000005, 'Ypres']",2.8846047,50.852194700000005,Ypres
1 CAVALRY DIVISION: 9 (Queen's Royal) Lancers,1914-11-14,50 51,AWD00001s8 AWD00001mk,Zillebeke,,,activity:enemy_activity,2.0,"[2.9224028999999998, 50.834638500000004, 'Zillebeke']",,,"[2.9224028999999998, 50.834638500000004, 'Zillebeke']",2.9224029,50.834638500000004,Zillebeke
1 CAVALRY DIVISION: 9 (Queen's Royal) Lancers,1914-11-15,51,AWD00001mk,Chateau Reichenburg,,,activity:enemy_activity,3.0,"[1.8217209999999999, 49.285037799999998, 'Trie-Château']",,,"[1.8217209999999999, 49.285037799999998, 'Trie-Château']",1.821721,49.2850378,Trie-Château
1 CAVALRY DIVISION: 9 (Queen's Royal) Lancers,1914-11-17,51 52,AWD00001mk AWD00001x4,Menin,Chateau Reichenburg,,activity:enemy_activity,3.0,"[3.1156565000000001, 50.796987899999998, 'Menin']","[1.8217209999999999, 49.285037799999998, 'Trie-Château']",,"[3.1156565000000001, 50.796987899999998, 'Menin']",3.1156565,50.7969879,Menin
1 CAVALRY DIVISION: 9 (Queen's Royal) Lancers,1914-11-18,52 53,AWD00001x4 AWD00001op,Menin,,,activity:enemy_activity,4.0,"[3.1156565000000001, 50.796987899999998, 'Menin']",,,"[3.1156565000000001, 50.796987899999998, 'Menin']",3.1156565,50.7969879,Menin
1 CAVALRY DIVISION: 9 (Queen's Royal) Lancers,1914-11-19,53,AWD00001op,Menin,,,activity:enemy_activity,4.0,"[3.1156565000000001, 50.796987899999998, 'Menin']",,,"[3.1156565000000001, 50.796987899999998, 'Menin']",3.1156565,50.7969879,Menin
1 CAVALRY DIVISION: 9 (Queen's Royal) Lancers,1914-11-20,53,AWD00001op,Meteren,Menin,,activity:enemy_activity,1.0,"[5.2832385999999998, 51.863605, 'Meteren']","[3.1156565000000001, 50.796987899999998, 'Menin']",,"[5.2832385999999998, 51.863605, 'Meteren']",5.2832386,51.863605,Meteren
1 CAVALRY DIVISION: 9 (Queen's Royal) Lancers,1914-11-23,54,AWD00001my,Kemmel,,,activity:enemy_activity,1.0,"[2.8258709, 50.7828552, 'Kemmel']",,,"[2.8258709, 50.7828552, 'Kemmel']",2.8258709,50.7828552,Kemmel
1 CAVALRY DIVISION: 9 (Queen's Royal) Lancers,1915-02-19,73,AWD00001u8,Meteren,,,activity:enemy_activity,1.0,"[5.2832385999999998, 51.863605, 'Meteren']",,,"[5.2832385999999998, 51.863605, 'Meteren']",5.2832386,51.863605,Meteren
1 CAVALRY DIVISION: 9 (Queen's Royal) Lancers,1915-02-28,74,AWD00001us,Zillebeke,Ypres,Ecole de Bienfaisance,activity:enemy_activity,1.0,"[2.9224028999999998, 50.834638500000004, 'Zillebeke']","[2.8846047000000001, 50.852194700000005, 'Ypres']",,"[2.9224028999999998, 50.834638500000004, 'Zillebeke']",2.9224029,50.834638500000004,Zillebeke
1 CAVALRY DIVISION: 9 (Queen's Royal) Lancers,1915-02-28,74 75,AWD00001us AWD00001wl,Ypres,Cavans Dugout,Ecole de Bienfaisance,activity:enemy_activity,1.0,"[2.8846047000000001, 50.852194700000005, 'Ypres']",,,"[2.8846047000000001, 50.852194700000005, 'Ypres']",2.8846047,50.852194700000005,Ypres
1 CAVALRY DIVISION: 9 (Queen's Royal) Lancers,1915-03-02,76,AWD00001of,Zillebeke,,,activity:enemy_activity,2.0,"[2.9224028999999998, 50.834638500000004, 'Zillebeke']",,,"[2.9224028999999998, 50.834638500000004, 'Zillebeke']",2.9224029,50.834638500000004,Zillebeke
1 CAVALRY DIVISION: 9 (Queen's Royal) Lancers,1915-03-04,77 78,AWD00001os AWD00001pc,Zillebeke,Ecole de Bienfaisance,Ecole de Bien,activity:enemy_activity,3.0,"[2.9224028999999998, 50.834638500000004, 'Zillebeke']",,,"[2.9224028999999998, 50.834638500000004, 'Zillebeke']",2.9224029,50.834638500000004,Zillebeke
1 CAVALRY DIVISION: 9 (Queen's Royal) Lancers,1915-03-14,79,AWD00001ne,Saint Eloi,Meteren,,activity:enemy_activity,1.0,"[5.1047399000000002, 49.8761297, 'Saint Eloi']","[5.2832385999999998, 51.863605, 'Meteren']",,"[5.1047399000000002, 49.8761297, 'Saint Eloi']",5.1047399,49.8761297,Saint Eloi
1 CAVALRY DIVISION: 9 (Queen's Royal) Lancers,1915-04-23,84 85,AWD00001v5 AWD00001nd,Brielen,Poperinghe,,activity:enemy_activity,1.0,"[2.8475388000000001, 50.8689046, 'Brielen']","[2.7265900000000003, 50.853859999999997, 'Poperinge']",,"[2.8475388000000001, 50.8689046, 'Brielen']",2.8475388,50.8689046,Brielen
1 CAVALRY DIVISION: 9 (Queen's Royal) Lancers,1915-05-21,96,AWD00001pr,Ypres,Menin,,activity:enemy_activity,5.0,"[2.8846047000000001, 50.852194700000005, 'Ypres']","[3.1156565000000001, 50.796987899999998, 'Menin']",,"[2.8846047000000001, 50.852194700000005, 'Ypres']",2.8846047,50.852194700000005,Ypres
1 CAVALRY DIVISION: 9 (Queen's Royal) Lancers,1915-05-24,97,AWD00001r7,Hooge,,,activity:enemy_activity,5.0,"[8.5455245268742352, 54.568344750000001, 'Hooge']",,,"[8.5455245268742352, 54.568344750000001, 'Hooge']",8.545524526874235,54.56834475,Hooge
1 CAVALRY DIVISION: 9 (Queen's Royal) Lancers,1915-07-29,113,AWD00001ls,Zeggers Cappel,,,activity:enemy_activity,3.0,"[2.7212622000000004, 50.7639554, 'Saint-Jans-Cappel']",,,"[2.7212622000000004, 50.7639554, 'Saint-Jans-Cappel']",2.7212622000000004,50.7639554,Saint-Jans-Cappel
1 CAVALRY DIVISION: 9 (Queen's Royal) Lancers,1915-09-30,127,AWD00001pz,Lapugnoy,,,activity:enemy_activity,1.0,"[2.5341999999999998, 50.520400000000002, 'Lapugnoy']",,,"[2.5341999999999998, 50.520400000000002, 'Lapugnoy']",2.5342,50.5204,Lapugnoy
1 CAVALRY DIVISION: 9 (Queen's Royal) Lancers,1915-10-04,130,AWD00001pe,Ligny-Lez-Aire,,,activity:enemy_activity,1.0,"[2.3492063999999999, 50.557334900000001, 'Ligny-lès-Aire']",,,"[2.3492063999999999, 50.557334900000001, 'Ligny-lès-Aire']",2.3492064,50.5573349,Ligny-lès-Aire
1 CAVALRY DIVISION: 9 (Queen's Royal) Lancers,1917-04-11,248,AWD00001se,Greenland Hill,Hervin Farm,Fampoux,activity:enemy_activity,2.0,,,"[2.8686432000000002, 50.302264899999997, 'Fampoux']","[2.8686432000000002, 50.302264899999997, 'Fampoux']",2.8686432,50.3022649,Fampoux
1 CAVALRY DIVISION: 9 (Queen's Royal) Lancers,1917-04-12,248 249 255,AWD00001se AWD00001rs AWD00001vz,Arras,Blangy,Frevin Capelle,activity:enemy_activity,3.0,"[2.7772210999999998, 50.291047999999996, 'Arras']","[2.8007122000000004, 50.301505499999998, 'Saint-Laurent-Blangy']","[2.6347999999999998, 50.348410000000001, 'Frevin-Capelle']","[2.7772210999999998, 50.291047999999996, 'Arras']",2.7772210999999998,50.291047999999996,Arras
1 CAVALRY DIVISION: 9 (Queen's Royal) Lancers,1917-04-30,253 254 255,AWD00001mc AWD00001ry AWD00001vz,Samer,Le Biez,Hersin,activity:enemy_activity,1.0,"[1.7469188000000002, 50.639271700000002, 'Samer']","[-2.0264053, 48.1804159, 'Le Biez']","[2.6484953999999998, 50.447235999999997, 'Hersin-Coupigny']","[1.7469188000000002, 50.639271700000002, 'Samer']",1.7469188000000002,50.6392717,Samer
1 CAVALRY DIVISION: 9 (Queen's Royal) Lancers,1917-06-18,268 271,AWD00001uh AWD00001qc,Cite Saint Pierre,Grenay,Bully Grenay,activity:enemy_activity,1.0,"[55.530318399999999, -21.263568899999999, 'citerne provisoire']","[2.7450299999999999, 50.449800000000003, 'Grenay']",,"[55.530318399999999, -21.263568899999999, 'citerne provisoire']",55.5303184,-21.2635689,citerne provisoire
1 CAVALRY DIVISION: 9 (Queen's Royal) Lancers,1917-06-20,268 271 272,AWD00001uh AWD00001qc AWD00001s6,Calonne,Calonne Sur la Lys,Grenay,activity:enemy_activity,2.0,"[3.4371661000000002, 50.578325, 'Calonne']","[2.6151531000000001, 50.623651099999996, 'Calonne-sur-la-Lys']","[2.7450299999999999, 50.449800000000003, 'Grenay']","[3.4371661000000002, 50.578325, 'Calonne']",3.4371661000000002,50.578325,Calonne
1 CAVALRY DIVISION: 9 (Queen's Royal) Lancers,1917-06-22,268 272,AWD00001uh AWD00001s6,Calonne Sur la Lys,Bully Grenay,Grenay,activity:enemy_activity,3.0,"[2.6151531000000001, 50.623651099999996, 'Calonne-sur-la-Lys']",,"[2.7450299999999999, 50.449800000000003, 'Grenay']","[2.6151531000000001, 50.623651099999996, 'Calonne-sur-la-Lys']",2.6151531,50.6236511,Calonne-sur-la-Lys
1 CAVALRY DIVISION: 9 (Queen's Royal) Lancers,1917-06-23,268 272,AWD00001uh AWD00001s6,Bully Grenay,Calonne Sur la Lys,,activity:enemy_activity,2.0,,"[2.6151531000000001, 50.623651099999996, 'Calonne-sur-la-Lys']",,"[2.6151531000000001, 50.623651099999996, 'Calonne-sur-la-Lys']",2.6151531,50.6236511,Calonne-sur-la-Lys
1 CAVALRY DIVISION: 9 (Queen's Royal) Lancers,1917-06-24,268 273,AWD00001uh AWD00001tu,Calonne Sur la Lys,Lievin,Bois de Riaumont,activity:enemy_activity,6.0,"[2.6151531000000001, 50.623651099999996, 'Calonne-sur-la-Lys']","[6.5289820000000001, 52.850561300000003, 'Lieving']",,"[2.6151531000000001, 50.623651099999996, 'Calonne-sur-la-Lys']",2.6151531,50.6236511,Calonne-sur-la-Lys
1 CAVALRY DIVISION: 9 (Queen's Royal) Lancers,1917-06-28,269 273,AWD00001np AWD00001tu,Lone House,Red Mill Lievin,Fosse 10,activity:enemy_activity,2.0,,"[-0.055075400000000004, 52.896858499999993, 'Red Mill Farm']","[3.8703760000000003, 48.579552399999997, 'Fosse Ronde']","[-0.055075400000000004, 52.896858499999993, 'Red Mill Farm']",-0.055075400000000004,52.89685849999999,Red Mill Farm
1 CAVALRY DIVISION: 9 (Queen's Royal) Lancers,1917-06-30,269 274,AWD00001np AWD00001s3,Petit Sains,Fosse 10,Calonne Sur la Lys,activity:enemy_activity,2.0,,"[3.8703760000000003, 48.579552399999997, 'Fosse Ronde']","[2.6151531000000001, 50.623651099999996, 'Calonne-sur-la-Lys']","[3.8703760000000003, 48.579552399999997, 'Fosse Ronde']",3.8703760000000003,48.5795524,Fosse Ronde
1 CAVALRY DIVISION: 9 (Queen's Royal) Lancers,1917-07-31,280 281 282 283 284 285 286,AWD00001tj AWD00001te AWD00001mm AWD00001xn AWD00001um AWD00001tt AWD00001nz,Aconite Trench,Absalom,Vendin Alley,activity:enemy_activity,7.0,"[-1.013536, 51.494467, 'Trench Green']",,"[2.6042300000000003, 50.546199999999999, 'Vendin-lès-Béthune']","[-1.013536, 51.494467, 'Trench Green']",-1.013536,51.494467,Trench Green
1 CAVALRY DIVISION: 9 (Queen's Royal) Lancers,1917-10-03,300,AWD00001un,Bernieulles,,,activity:enemy_activity,1.0,"[1.77285, 50.554600000000001, 'Bernieulles']",,,"[1.77285, 50.554600000000001, 'Bernieulles']",1.77285,50.5546,Bernieulles
1 CAVALRY DIVISION: 9 (Queen's Royal) Lancers,1917-11-20,309 310,AWD00001mx AWD00001ol,Flesguieres,Canal de l'Escaut,Noyelles,activity:enemy_activity,1.0,"[1.7594900000000002, 44.81324, 'Falguieres']",,"[2.3966668999999996, 50.461525899999998, 'Noyelles']","[1.7594900000000002, 44.81324, 'Falguieres']",1.7594900000000002,44.81324,Falguieres
1 CAVALRY DIVISION: 9 (Queen's Royal) Lancers,1917-11-21,310 311 312,AWD00001ol AWD00001tp AWD00001ro,Bois de Neuf,Cantaing,Noyelles,activity:enemy_activity,10.0,"[2.7932915, 48.915995500000001, 'Le Bois Neuf']","[3.1572832000000002, 50.147437400000001, 'Cantaing-sur-Escaut']","[2.3966668999999996, 50.461525899999998, 'Noyelles']","[2.7932915, 48.915995500000001, 'Le Bois Neuf']",2.7932915,48.9159955,Le Bois Neuf
1 CAVALRY DIVISION: 9 (Queen's Royal) Lancers,1918-01-16,332,AWD00001wq,Le Verguier,Ascension Farm,Doingt,activity:enemy_activity,7.0,"[3.1705771, 49.924188899999997, 'Le Verguier']",,"[2.9659142000000003, 49.922705700000002, 'Doingt']","[3.1705771, 49.924188899999997, 'Le Verguier']",3.1705771,49.9241889,Le Verguier
1 CAVALRY DIVISION: 9 (Queen's Royal) Lancers,1918-01-18,328 333,AWD00001xo AWD00001rp,Doingt,Little Bill,Ascension Wood,activity:enemy_activity,3.0,"[2.9659142000000003, 49.922705700000002, 'Doingt']","[-0.64190360000000002, 51.8946884, 'Little Billington']",,"[2.9659142000000003, 49.922705700000002, 'Doingt']",2.9659142000000003,49.9227057,Doingt
1 CAVALRY DIVISION: 9 (Queen's Royal) Lancers,1918-01-20,329 333 334,AWD00001tr AWD00001rp AWD00001q4,Ascension Farm,A2 Sub Sector,Doingt,activity:enemy_activity,3.0,,,"[2.9659142000000003, 49.922705700000002, 'Doingt']","[2.9659142000000003, 49.922705700000002, 'Doingt']",2.9659142000000003,49.9227057,Doingt
1 CAVALRY DIVISION: 9 (Queen's Royal) Lancers,1918-01-21,334,AWD00001q4,Le Verguier,Vadencourt,A2 Sub Sector,activity:enemy_activity,2.0,"[3.1705771, 49.924188899999997, 'Le Verguier']","[3.5797222, 49.93, 'Vadencourt']",,"[3.1705771, 49.924188899999997, 'Le Verguier']",3.1705771,49.9241889,Le Verguier
1 CAVALRY DIVISION: 9 (Queen's Royal) Lancers,1918-01-22,334 335,AWD00001q4 AWD00001o3,Buisson Ridge,Vadencourt,,activity:enemy_activity,4.0,"[2.2653843999999999, 48.746781899999995, 'Verrières-le-Buisson']","[3.5797222, 49.93, 'Vadencourt']",,"[2.2653843999999999, 48.746781899999995, 'Verrières-le-Buisson']",2.2653844,48.746781899999995,Verrières-le-Buisson
1 CAVALRY DIVISION: 9 (Queen's Royal) Lancers,1918-01-23,335,AWD00001o3,Buisson Ridge,,,activity:enemy_activity,1.0,"[2.2653843999999999, 48.746781899999995, 'Verrières-le-Buisson']",,,"[2.2653843999999999, 48.746781899999995, 'Verrières-le-Buisson']",2.2653844,48.746781899999995,Verrières-le-Buisson
1 CAVALRY DIVISION: 9 (Queen's Royal) Lancers,1918-02-15,340,AWD00001qf,Doingt,Le Verguier,Somme,activity:enemy_activity,2.0,"[2.9659142000000003, 49.922705700000002, 'Doingt']","[3.1705771, 49.924188899999997, 'Le Verguier']","[2.7174930000000002, 49.940190399999999, 'Bray-sur-Somme']","[2.9659142000000003, 49.922705700000002, 'Doingt']",2.9659142000000003,49.9227057,Doingt
1 CAVALRY DIVISION: 9 (Queen's Royal) Lancers,1918-02-17,341,AWD00001p0,Doingt,,,activity:enemy_activity,4.0,"[2.9659142000000003, 49.922705700000002, 'Doingt']",,,"[2.9659142000000003, 49.922705700000002, 'Doingt']",2.9659142000000003,49.9227057,Doingt
1 CAVALRY DIVISION: 9 (Queen's Royal) Lancers,1918-02-18,341,AWD00001p0,Hervilly,,,activity:enemy_activity,4.0,"[3.1162448999999999, 49.936377499999999, 'Hervilly']",,,"[3.1162448999999999, 49.936377499999999, 'Hervilly']",3.1162449,49.9363775,Hervilly
1 CAVALRY DIVISION: 9 (Queen's Royal) Lancers,1918-03-21,345,AWD00001xa,Doingt,Le Mesnil,,activity:enemy_activity,1.0,"[2.9659142000000003, 49.922705700000002, 'Doingt']","[-1.6958746999999998, 49.3692396, 'Le Mesnil']",,"[2.9659142000000003, 49.922705700000002, 'Doingt']",2.9659142000000003,49.9227057,Doingt
1 CAVALRY DIVISION: 9 (Queen's Royal) Lancers,1918-03-23,345,AWD00001xa,Brie Bridge,Curchy,,activity:enemy_activity,1.0,,"[2.8584223999999998, 49.776317799999994, 'Curchy']",,"[2.8584223999999998, 49.776317799999994, 'Curchy']",2.8584224,49.776317799999994,Curchy
1 CAVALRY DIVISION: 9 (Queen's Royal) Lancers,1918-03-27,346,AWD00001sg,Mericourt,Treux,,activity:enemy_activity,2.0,"[2.5654499999999998, 49.952129999999997, ""Mericourt-l'Abbe""]","[2.5909646, 49.957839, 'Treux']",,"[2.5654499999999998, 49.952129999999997, ""Mericourt-l'Abbe""]",2.56545,49.95213,Mericourt-l'Abbe
1 CAVALRY DIVISION: 9 (Queen's Royal) Lancers,1918-08-08,372 373 374,AWD00001t8 AWD00001vu AWD00001mg,Guillaucourt,Wiencourt,Caix,activity:enemy_activity,3.0,"[2.6287896000000002, 49.842454700000005, 'Guillaucourt']","[2.6116834999999998, 49.845958899999999, ""Wiencourt-l'Équipée""]","[2.6462567000000004, 49.816769399999998, 'Caix']","[2.6287896000000002, 49.842454700000005, 'Guillaucourt']",2.6287896,49.842454700000005,Guillaucourt
1 CAVALRY DIVISION: 9 (Queen's Royal) Lancers,1918-08-09,374 375 376 377,AWD00001mg AWD00001re AWD00001q5 AWD00001xg,Caix,Vrely,Meharicourt,activity:enemy_activity,3.0,"[2.6462567000000004, 49.816769399999998, 'Caix']","[2.6948099999999999, 49.798900000000003, 'Vrely']","[2.7319599999999999, 49.797710000000002, 'Meharicourt']","[2.6462567000000004, 49.816769399999998, 'Caix']",2.6462567000000004,49.8167694,Caix
1 CAVALRY DIVISION: 9 (Queen's Royal) Lancers,1918-10-09,390,AWD00001wi,Premont,Maretz,Beaurevoir,activity:enemy_activity,2.0,"[6.0947845000000003, 48.430763700000007, 'Regnant le Premont']","[3.4181269999999997, 50.046955799999999, 'Maretz']","[3.3097221999999999, 49.997222200000003, 'Beaurevoir']","[6.0947845000000003, 48.430763700000007, 'Regnant le Premont']",6.0947845,48.43076370000001,Regnant le Premont
1 CAVALRY DIVISION: 9 (Queen's Royal) Lancers,1914-08-24,5 6,AWD00001rz AWD00001x2,Thulin,Audregnies,,activity:fire,5.0,"[3.7393228999999999, 50.429283200000008, 'Thulin']","[3.7202864999999998, 50.381600799999994, 'Audregnies']",,"[3.7393228999999999, 50.429283200000008, 'Thulin']",3.7393229,50.42928320000001,Thulin
1 CAVALRY DIVISION: 9 (Queen's Royal) Lancers,1914-08-29,8,AWD00001w1,Ourscamp,Guiscard,,activity:fire,4.0,"[2.9548673000000001, 49.543956000000001, 'Chiry-Ourscamp']","[3.0500623999999998, 49.655228100000002, 'Guiscard']",,"[2.9548673000000001, 49.543956000000001, 'Chiry-Ourscamp']",2.9548673,49.543956,Chiry-Ourscamp
1 CAVALRY DIVISION: 9 (Queen's Royal) Lancers,1914-08-30,8,AWD00001w1,Vieux Moulin,,,activity:fire,1.0,"[6.7259478000000001, 48.120250200000001, 'Vieux Moulin']",,,"[6.7259478000000001, 48.120250200000001, 'Vieux Moulin']",6.7259478,48.1202502,Vieux Moulin
1 CAVALRY DIVISION: 9 (Queen's Royal) Lancers,1914-09-02,16,AWD00001vy,Thieux,Mont l'Eveque,,activity:fire,1.0,"[2.6688472000000001, 49.007986899999999, 'Thieux']","[2.6333299999999999, 49.200000000000003, ""Mont-l'Eveque""]",,"[2.6688472000000001, 49.007986899999999, 'Thieux']",2.6688472,49.0079869,Thieux
1 CAVALRY DIVISION: 9 (Queen's Royal) Lancers,1914-09-06,16,AWD00001vy,Pecy,Gastins,La Noue,activity:fire,3.0,"[3.0822099999999999, 48.65551, 'Pecy']","[3.0205481000000001, 48.628248499999998, 'Gastins']","[3.6108788999999999, 48.742849, 'La Noue']","[3.0822099999999999, 48.65551, 'Pecy']",3.08221,48.65551,Pecy
1 CAVALRY DIVISION: 9 (Queen's Royal) Lancers,1914-09-07,16 17,AWD00001vy AWD00001qw,Pecy,Le Buisson Bailly,Feraubry,activity:fire,2.0,"[3.0822099999999999, 48.65551, 'Pecy']","[2.2653843999999999, 48.746781899999995, 'Verrières-le-Buisson']","[3.2676799999999999, 48.76041, 'Feraubry']","[3.0822099999999999, 48.65551, 'Pecy']",3.08221,48.65551,Pecy
1 CAVALRY DIVISION: 9 (Queen's Royal) Lancers,1914-09-07,17,AWD00001qw,Le Buisson Bailly,Sablonnieres,Bassevelle,activity:fire,4.0,"[2.2653843999999999, 48.746781899999995, 'Verrières-le-Buisson']","[3.2970199999999998, 48.875709999999998, 'Sablonnieres']","[3.2877267999999997, 48.927182700000003, 'Bassevelle']","[2.2653843999999999, 48.746781899999995, 'Verrières-le-Buisson']",2.2653844,48.746781899999995,Verrières-le-Buisson
1 CAVALRY DIVISION: 9 (Queen's Royal) Lancers,1914-09-11,17,AWD00001qw,Rozet-St-Albu,Arcy-St-Restitute,,activity:fire,1.0,"[3.3004800000000003, 49.194899999999997, 'Rozet-Saint-Albin']","[3.4641700000000002, 49.252380000000002, 'Arcy-Sainte-Restitue']",,"[3.3004800000000003, 49.194899999999997, 'Rozet-Saint-Albin']",3.3004800000000003,49.1949,Rozet-Saint-Albin
1 CAVALRY DIVISION: 9 (Queen's Royal) Lancers,1914-09-14,17 18,AWD00001qw AWD00001ur,Longueval,Pargnan,Bourg,activity:fire,4.0,"[2.8039931999999999, 50.026224299999996, 'Longueval']","[3.6914712000000001, 49.400321399999996, 'Pargnan']","[3.6540786000000001, 49.396351600000003, 'Bourg-et-Comin']","[2.8039931999999999, 50.026224299999996, 'Longueval']",2.8039932,50.026224299999996,Longueval
1 CAVALRY DIVISION: 9 (Queen's Royal) Lancers,1914-09-14,18,AWD00001ur,Pargnan,Soupir,Vendresse,activity:fire,2.0,"[3.6914712000000001, 49.400321399999996, 'Pargnan']","[3.5939800000000002, 49.406300000000002, 'Soupir']","[4.7929447999999999, 49.603653999999999, 'Vendresse']","[3.6914712000000001, 49.400321399999996, 'Pargnan']",3.6914712,49.400321399999996,Pargnan
1 CAVALRY DIVISION: 9 (Queen's Royal) Lancers,1914-09-17,18,AWD00001ur,Chavonne,,,activity:fire,1.0,"[3.5695699999999997, 49.405099999999997, 'Chavonne']",,,"[3.5695699999999997, 49.405099999999997, 'Chavonne']",3.5695699999999997,49.4051,Chavonne
1 CAVALRY DIVISION: 9 (Queen's Royal) Lancers,1914-09-19,19,AWD00001qs,Longueval,,,activity:fire,4.0,"[2.8039931999999999, 50.026224299999996, 'Longueval']",,,"[2.8039931999999999, 50.026224299999996, 'Longueval']",2.8039932,50.026224299999996,Longueval
1 CAVALRY DIVISION: 9 (Queen's Royal) Lancers,1914-09-22,19,AWD00001qs,Paissy,Longueval,,activity:fire,4.0,"[3.7019684999999996, 49.424531000000002, 'Paissy']","[2.8039931999999999, 50.026224299999996, 'Longueval']",,"[3.7019684999999996, 49.424531000000002, 'Paissy']",3.7019684999999996,49.424531,Paissy
1 CAVALRY DIVISION: 9 (Queen's Royal) Lancers,1914-09-24,19,AWD00001qs,Paissy,,,activity:fire,3.0,"[3.7019684999999996, 49.424531000000002, 'Paissy']",,,"[3.7019684999999996, 49.424531000000002, 'Paissy']",3.7019684999999996,49.424531,Paissy
1 CAVALRY DIVISION: 9 (Queen's Royal) Lancers,1914-09-29,20,AWD00001ui,Longueval,,,activity:fire,5.0,"[2.8039931999999999, 50.026224299999996, 'Longueval']",,,"[2.8039931999999999, 50.026224299999996, 'Longueval']",2.8039932,50.026224299999996,Longueval
1 CAVALRY DIVISION: 9 (Queen's Royal) Lancers,1914-10-11,27,AWD00001mh,Vierhouck,Houdain,Verterue,activity:fire,3.0,,"[2.5367842, 50.453812599999999, 'Houdain']","[5.5060689000000007, 49.716401700000006, 'Verterme']","[2.5367842, 50.453812599999999, 'Houdain']",2.5367842,50.4538126,Houdain
1 CAVALRY DIVISION: 9 (Queen's Royal) Lancers,1914-10-12,27,AWD00001mh,Strazeele,Vieux Berquin,,activity:fire,1.0,"[2.6322141000000001, 50.726931399999998, 'Strazeele']","[2.6437922999999999, 50.694805200000005, 'Vieux-Berquin']",,"[2.6322141000000001, 50.726931399999998, 'Strazeele']",2.6322141,50.7269314,Strazeele
1 CAVALRY DIVISION: 9 (Queen's Royal) Lancers,1914-10-13,27 28,AWD00001mh AWD00001pm,Thieushouck,Thieushoer,Hazebrouck,activity:fire,1.0,,,"[2.5360331, 50.722611299999997, 'Hazebrouck']","[2.5360331, 50.722611299999997, 'Hazebrouck']",2.5360331,50.7226113,Hazebrouck
1 CAVALRY DIVISION: 9 (Queen's Royal) Lancers,1914-10-18,29,AWD00001sh,Ploegsteert,Pont Rouge,,activity:fire,5.0,"[2.8803139, 50.726220399999995, 'Ploegsteert']","[5.8699868000000004, 46.018050299999999, 'Pont Rouge']",,"[2.8803139, 50.726220399999995, 'Ploegsteert']",2.8803139,50.726220399999995,Ploegsteert
1 CAVALRY DIVISION: 9 (Queen's Royal) Lancers,1914-10-20,30,AWD00001qb,Messines,Ploegsteert,Saint Ives,activity:fire,7.0,"[0.44687090000000002, 44.416204399999998, 'Messines']","[2.8803139, 50.726220399999995, 'Ploegsteert']","[-0.076560000000000003, 52.332509999999999, 'Saint Ives']","[0.44687090000000002, 44.416204399999998, 'Messines']",0.4468709,44.4162044,Messines
1 CAVALRY DIVISION: 9 (Queen's Royal) Lancers,1914-10-21,30 31,AWD00001qb AWD00001ud,Wulverghem,Ploegsteert,Messines,activity:fire,4.0,"[2.85243, 50.760210000000001, 'Wulvergem']","[2.8803139, 50.726220399999995, 'Ploegsteert']","[0.44687090000000002, 44.416204399999998, 'Messines']","[2.85243, 50.760210000000001, 'Wulvergem']",2.85243,50.76021,Wulvergem
1 CAVALRY DIVISION: 9 (Queen's Royal) Lancers,1914-10-22,31,AWD00001ud,Le Gheer,Wulverghem,Ploegsteert,activity:fire,1.0,"[2.9120512000000001, 50.731510399999998, 'Le Gheer']","[2.85243, 50.760210000000001, 'Wulvergem']","[2.8803139, 50.726220399999995, 'Ploegsteert']","[2.9120512000000001, 50.731510399999998, 'Le Gheer']",2.9120512,50.7315104,Le Gheer
1 CAVALRY DIVISION: 9 (Queen's Royal) Lancers,1914-10-25,32,AWD00001pk,Wulverghem,,,activity:fire,3.0,"[2.85243, 50.760210000000001, 'Wulvergem']",,,"[2.85243, 50.760210000000001, 'Wulvergem']",2.85243,50.76021,Wulvergem
1 CAVALRY DIVISION: 9 (Queen's Royal) Lancers,1914-10-28,32,AWD00001pk,La Couture,Neuve Chapelle,,activity:fire,1.0,"[2.7129084999999997, 50.5801874, 'La Couture']","[2.7799148999999996, 50.583883, 'Neuve-Chapelle']",,"[2.7129084999999997, 50.5801874, 'La Couture']",2.7129084999999997,50.5801874,La Couture
1 CAVALRY DIVISION: 9 (Queen's Royal) Lancers,1914-10-30,33,AWD00001v0,Neuve Eglise,Messines,,activity:fire,8.0,"[2.9834299999999998, 44.927869999999999, 'Neuveglise']","[0.44687090000000002, 44.416204399999998, 'Messines']",,"[2.9834299999999998, 44.927869999999999, 'Neuveglise']",2.98343,44.92787,Neuveglise
1 CAVALRY DIVISION: 9 (Queen's Royal) Lancers,1914-10-31,33 34 38 40 41 42,AWD00001v0 AWD00001s2 AWD00001sr AWD00001pu AWD00001qp AWD00001s4,River Lys,Messines,,activity:fire,3.0,,"[0.44687090000000002, 44.416204399999998, 'Messines']",,"[0.44687090000000002, 44.416204399999998, 'Messines']",0.4468709,44.4162044,Messines
1 CAVALRY DIVISION: 9 (Queen's Royal) Lancers,1914-11-03,47,AWD00001qh,Messines,,,activity:fire,3.0,"[0.44687090000000002, 44.416204399999998, 'Messines']",,,"[0.44687090000000002, 44.416204399999998, 'Messines']",0.4468709,44.4162044,Messines
1 CAVALRY DIVISION: 9 (Queen's Royal) Lancers,1914-11-07,48 49,AWD00001ny AWD00001so,Wulverghem,Meteren,,activity:fire,3.0,"[2.85243, 50.760210000000001, 'Wulvergem']","[5.2832385999999998, 51.863605, 'Meteren']",,"[2.85243, 50.760210000000001, 'Wulvergem']",2.85243,50.76021,Wulvergem
1 CAVALRY DIVISION: 9 (Queen's Royal) Lancers,1914-11-12,50,AWD00001s8,Ypres,,,activity:fire,2.0,"[2.8846047000000001, 50.852194700000005, 'Ypres']",,,"[2.8846047000000001, 50.852194700000005, 'Ypres']",2.8846047,50.852194700000005,Ypres
1 CAVALRY DIVISION: 9 (Queen's Royal) Lancers,1914-11-13,50,AWD00001s8,Ypres,Zillebeke,,activity:fire,5.0,"[2.8846047000000001, 50.852194700000005, 'Ypres']","[2.9224028999999998, 50.834638500000004, 'Zillebeke']",,"[2.8846047000000001, 50.852194700000005, 'Ypres']",2.8846047,50.852194700000005,Ypres
1 CAVALRY DIVISION: 9 (Queen's Royal) Lancers,1914-11-14,50 51,AWD00001s8 AWD00001mk,Zillebeke,,,activity:fire,7.0,"[2.9224028999999998, 50.834638500000004, 'Zillebeke']",,,"[2.9224028999999998, 50.834638500000004, 'Zillebeke']",2.9224029,50.834638500000004,Zillebeke
1 CAVALRY DIVISION: 9 (Queen's Royal) Lancers,1914-11-15,51,AWD00001mk,Chateau Reichenburg,,,activity:fire,3.0,"[1.8217209999999999, 49.285037799999998, 'Trie-Château']",,,"[1.8217209999999999, 49.285037799999998, 'Trie-Château']",1.821721,49.2850378,Trie-Château
1 CAVALRY DIVISION: 9 (Queen's Royal) Lancers,1914-11-17,51 52,AWD00001mk AWD00001x4,Menin,Chateau Reichenburg,,activity:fire,2.0,"[3.1156565000000001, 50.796987899999998, 'Menin']","[1.8217209999999999, 49.285037799999998, 'Trie-Château']",,"[3.1156565000000001, 50.796987899999998, 'Menin']",3.1156565,50.7969879,Menin
1 CAVALRY DIVISION: 9 (Queen's Royal) Lancers,1914-11-18,52 53,AWD00001x4 AWD00001op,Menin,,,activity:fire,7.0,"[3.1156565000000001, 50.796987899999998, 'Menin']",,,"[3.1156565000000001, 50.796987899999998, 'Menin']",3.1156565,50.7969879,Menin
1 CAVALRY DIVISION: 9 (Queen's Royal) Lancers,1914-11-19,53,AWD00001op,Menin,,,activity:fire,6.0,"[3.1156565000000001, 50.796987899999998, 'Menin']",,,"[3.1156565000000001, 50.796987899999998, 'Menin']",3.1156565,50.7969879,Menin
1 CAVALRY DIVISION: 9 (Queen's Royal) Lancers,1914-11-23,54,AWD00001my,Kemmel,,,activity:fire,3.0,"[2.8258709, 50.7828552, 'Kemmel']",,,"[2.8258709, 50.7828552, 'Kemmel']",2.8258709,50.7828552,Kemmel
1 CAVALRY DIVISION: 9 (Queen's Royal) Lancers,1915-01-09,66,AWD00001w7,Meteren,,,activity:fire,1.0,"[5.2832385999999998, 51.863605, 'Meteren']",,,"[5.2832385999999998, 51.863605, 'Meteren']",5.2832386,51.863605,Meteren
1 CAVALRY DIVISION: 9 (Queen's Royal) Lancers,1915-02-26,74,AWD00001us,Zillebeke,,,activity:fire,2.0,"[2.9224028999999998, 50.834638500000004, 'Zillebeke']",,,"[2.9224028999999998, 50.834638500000004, 'Zillebeke']",2.9224029,50.834638500000004,Zillebeke
1 CAVALRY DIVISION: 9 (Queen's Royal) Lancers,1915-02-28,74,AWD00001us,Zillebeke,Ypres,Ecole de Bienfaisance,activity:fire,1.0,"[2.9224028999999998, 50.834638500000004, 'Zillebeke']","[2.8846047000000001, 50.852194700000005, 'Ypres']",,"[2.9224028999999998, 50.834638500000004, 'Zillebeke']",2.9224029,50.834638500000004,Zillebeke
1 CAVALRY DIVISION: 9 (Queen's Royal) Lancers,1915-02-28,74 75,AWD00001us AWD00001wl,Ypres,Cavans Dugout,Ecole de Bienfaisance,activity:fire,4.0,"[2.8846047000000001, 50.852194700000005, 'Ypres']",,,"[2.8846047000000001, 50.852194700000005, 'Ypres']",2.8846047,50.852194700000005,Ypres
1 CAVALRY DIVISION: 9 (Queen's Royal) Lancers,1915-03-02,76,AWD00001of,Zillebeke,,,activity:fire,6.0,"[2.9224028999999998, 50.834638500000004, 'Zillebeke']",,,"[2.9224028999999998, 50.834638500000004, 'Zillebeke']",2.9224029,50.834638500000004,Zillebeke
1 CAVALRY DIVISION: 9 (Queen's Royal) Lancers,1915-03-04,77 78,AWD00001os AWD00001pc,Zillebeke,Ecole de Bienfaisance,Ecole de Bien,activity:fire,17.0,"[2.9224028999999998, 50.834638500000004, 'Zillebeke']",,,"[2.9224028999999998, 50.834638500000004, 'Zillebeke']",2.9224029,50.834638500000004,Zillebeke
1 CAVALRY DIVISION: 9 (Queen's Royal) Lancers,1915-03-05,78,AWD00001pc,Zillebeke,Caestre,Ecole de Bienfaisance,activity:fire,3.0,"[2.9224028999999998, 50.834638500000004, 'Zillebeke']","[2.6027400000000003, 50.758380000000002, 'Caestre']",,"[2.9224028999999998, 50.834638500000004, 'Zillebeke']",2.9224029,50.834638500000004,Zillebeke
1 CAVALRY DIVISION: 9 (Queen's Royal) Lancers,1915-03-14,79,AWD00001ne,Saint Eloi,Meteren,,activity:fire,1.0,"[5.1047399000000002, 49.8761297, 'Saint Eloi']","[5.2832385999999998, 51.863605, 'Meteren']",,"[5.1047399000000002, 49.8761297, 'Saint Eloi']",5.1047399,49.8761297,Saint Eloi
1 CAVALRY DIVISION: 9 (Queen's Royal) Lancers,1915-04-25,85,AWD00001nd,Elverdinghe,,,activity:fire,5.0,"[2.8086072093093635, 50.881201050000001, nan]",,,"[2.8086072093093635, 50.881201050000001, nan]",2.8086072093093635,50.88120105,
1 CAVALRY DIVISION: 9 (Queen's Royal) Lancers,1915-04-26,85 86,AWD00001nd AWD00001xw,Woesten,,,activity:fire,7.0,"[2.7903755000000001, 50.900419399999997, 'Woesten']",,,"[2.7903755000000001, 50.900419399999997, 'Woesten']",2.7903755,50.9004194,Woesten
1 CAVALRY DIVISION: 9 (Queen's Royal) Lancers,1915-04-27,86,AWD00001xw,Woesten,,,activity:fire,5.0,"[2.7903755000000001, 50.900419399999997, 'Woesten']",,,"[2.7903755000000001, 50.900419399999997, 'Woesten']",2.7903755,50.9004194,Woesten
1 CAVALRY DIVISION: 9 (Queen's Royal) Lancers,1915-05-09,93,AWD00001t6,Meteren,Menin,Ypres,activity:fire,11.0,"[5.2832385999999998, 51.863605, 'Meteren']","[3.1156565000000001, 50.796987899999998, 'Menin']","[2.8846047000000001, 50.852194700000005, 'Ypres']","[5.2832385999999998, 51.863605, 'Meteren']",5.2832386,51.863605,Meteren
1 CAVALRY DIVISION: 9 (Queen's Royal) Lancers,1915-05-10,94,AWD00001xz,Ypres,Hooge,,activity:fire,13.0,"[2.8846047000000001, 50.852194700000005, 'Ypres']","[8.5455245268742352, 54.568344750000001, 'Hooge']",,"[2.8846047000000001, 50.852194700000005, 'Ypres']",2.8846047,50.852194700000005,Ypres
1 CAVALRY DIVISION: 9 (Queen's Royal) Lancers,1915-05-13,94,AWD00001xz,Wieltje,,,activity:fire,7.0,"[2.9175338000000002, 50.870688399999999, 'Wieltje']",,,"[2.9175338000000002, 50.870688399999999, 'Wieltje']",2.9175338,50.8706884,Wieltje
1 CAVALRY DIVISION: 9 (Queen's Royal) Lancers,1915-05-21,96,AWD00001pr,Ypres,Menin,,activity:fire,4.0,"[2.8846047000000001, 50.852194700000005, 'Ypres']","[3.1156565000000001, 50.796987899999998, 'Menin']",,"[2.8846047000000001, 50.852194700000005, 'Ypres']",2.8846047,50.852194700000005,Ypres
1 CAVALRY DIVISION: 9 (Queen's Royal) Lancers,1915-05-24,97,AWD00001r7,Hooge,,,activity:fire,4.0,"[8.5455245268742352, 54.568344750000001, 'Hooge']",,,"[8.5455245268742352, 54.568344750000001, 'Hooge']",8.545524526874235,54.56834475,Hooge
1 CAVALRY DIVISION: 9 (Queen's Royal) Lancers,1915-08-12,118,AWD00001sp,Zeggers Cappel,,,activity:fire,3.0,"[2.7212622000000004, 50.7639554, 'Saint-Jans-Cappel']",,,"[2.7212622000000004, 50.7639554, 'Saint-Jans-Cappel']",2.7212622000000004,50.7639554,Saint-Jans-Cappel
1 CAVALRY DIVISION: 9 (Queen's Royal) Lancers,1915-10-04,130,AWD00001pe,Ligny-Lez-Aire,,,activity:fire,1.0,"[2.3492063999999999, 50.557334900000001, 'Ligny-lès-Aire']",,,"[2.3492063999999999, 50.557334900000001, 'Ligny-lès-Aire']",2.3492064,50.5573349,Ligny-lès-Aire
1 CAVALRY DIVISION: 9 (Queen's Royal) Lancers,1915-10-18,131,AWD00001xm,Ligny-Lez-Aire,,,activity:fire,1.0,"[2.3492063999999999, 50.557334900000001, 'Ligny-lès-Aire']",,,"[2.3492063999999999, 50.557334900000001, 'Ligny-lès-Aire']",2.3492064,50.5573349,Ligny-lès-Aire
1 CAVALRY DIVISION: 9 (Queen's Royal) Lancers,1916-06-01,174,AWD00001nc,Enquin,,,activity:fire,1.0,"[1.83585, 50.57226, 'Enquin-sur-Baillons']",,,"[1.83585, 50.57226, 'Enquin-sur-Baillons']",1.83585,50.57226,Enquin-sur-Baillons
1 CAVALRY DIVISION: 9 (Queen's Royal) Lancers,1916-09-16,200,AWD00001to,Fricourt,Carnoy Valley,,activity:fire,4.0,"[2.7162587000000005, 49.998718599999997, 'Fricourt']","[2.7563297000000002, 49.985337899999998, 'Carnoy']",,"[2.7162587000000005, 49.998718599999997, 'Fricourt']",2.7162587000000005,49.9987186,Fricourt
1 CAVALRY DIVISION: 9 (Queen's Royal) Lancers,1917-04-11,248,AWD00001se,Greenland Hill,Hervin Farm,Fampoux,activity:fire,4.0,,,"[2.8686432000000002, 50.302264899999997, 'Fampoux']","[2.8686432000000002, 50.302264899999997, 'Fampoux']",2.8686432,50.3022649,Fampoux
1 CAVALRY DIVISION: 9 (Queen's Royal) Lancers,1917-04-12,248 249 255,AWD00001se AWD00001rs AWD00001vz,Arras,Blangy,Frevin Capelle,activity:fire,4.0,"[2.7772210999999998, 50.291047999999996, 'Arras']","[2.8007122000000004, 50.301505499999998, 'Saint-Laurent-Blangy']","[2.6347999999999998, 50.348410000000001, 'Frevin-Capelle']","[2.7772210999999998, 50.291047999999996, 'Arras']",2.7772210999999998,50.291047999999996,Arras
1 CAVALRY DIVISION: 9 (Queen's Royal) Lancers,1917-04-30,253 254 255,AWD00001mc AWD00001ry AWD00001vz,Samer,Le Biez,Hersin,activity:fire,2.0,"[1.7469188000000002, 50.639271700000002, 'Samer']","[-2.0264053, 48.1804159, 'Le Biez']","[2.6484953999999998, 50.447235999999997, 'Hersin-Coupigny']","[1.7469188000000002, 50.639271700000002, 'Samer']",1.7469188000000002,50.6392717,Samer
1 CAVALRY DIVISION: 9 (Queen's Royal) Lancers,1917-06-18,268 271,AWD00001uh AWD00001qc,Cite Saint Pierre,Grenay,Bully Grenay,activity:fire,2.0,"[55.530318399999999, -21.263568899999999, 'citerne provisoire']","[2.7450299999999999, 50.449800000000003, 'Grenay']",,"[55.530318399999999, -21.263568899999999, 'citerne provisoire']",55.5303184,-21.2635689,citerne provisoire
1 CAVALRY DIVISION: 9 (Queen's Royal) Lancers,1917-06-19,268 271,AWD00001uh AWD00001qc,Grenay,Calonne Sur la Lys,,activity:fire,2.0,"[2.7450299999999999, 50.449800000000003, 'Grenay']","[2.6151531000000001, 50.623651099999996, 'Calonne-sur-la-Lys']",,"[2.7450299999999999, 50.449800000000003, 'Grenay']",2.74503,50.4498,Grenay
1 CAVALRY DIVISION: 9 (Queen's Royal) Lancers,1917-06-20,268 271 272,AWD00001uh AWD00001qc AWD00001s6,Calonne,Calonne Sur la Lys,Grenay,activity:fire,15.0,"[3.4371661000000002, 50.578325, 'Calonne']","[2.6151531000000001, 50.623651099999996, 'Calonne-sur-la-Lys']","[2.7450299999999999, 50.449800000000003, 'Grenay']","[3.4371661000000002, 50.578325, 'Calonne']",3.4371661000000002,50.578325,Calonne
1 CAVALRY DIVISION: 9 (Queen's Royal) Lancers,1917-06-22,268 272,AWD00001uh AWD00001s6,Calonne Sur la Lys,Bully Grenay,Grenay,activity:fire,13.0,"[2.6151531000000001, 50.623651099999996, 'Calonne-sur-la-Lys']",,"[2.7450299999999999, 50.449800000000003, 'Grenay']","[2.6151531000000001, 50.623651099999996, 'Calonne-sur-la-Lys']",2.6151531,50.6236511,Calonne-sur-la-Lys
1 CAVALRY DIVISION: 9 (Queen's Royal) Lancers,1917-06-23,268 272,AWD00001uh AWD00001s6,Bully Grenay,Calonne Sur la Lys,,activity:fire,6.0,,"[2.6151531000000001, 50.623651099999996, 'Calonne-sur-la-Lys']",,"[2.6151531000000001, 50.623651099999996, 'Calonne-sur-la-Lys']",2.6151531,50.6236511,Calonne-sur-la-Lys
1 CAVALRY DIVISION: 9 (Queen's Royal) Lancers,1917-06-24,268 273,AWD00001uh AWD00001tu,Calonne Sur la Lys,Lievin,Bois de Riaumont,activity:fire,3.0,"[2.6151531000000001, 50.623651099999996, 'Calonne-sur-la-Lys']","[6.5289820000000001, 52.850561300000003, 'Lieving']",,"[2.6151531000000001, 50.623651099999996, 'Calonne-sur-la-Lys']",2.6151531,50.6236511,Calonne-sur-la-Lys
1 CAVALRY DIVISION: 9 (Queen's Royal) Lancers,1917-06-28,269 273,AWD00001np AWD00001tu,Lone House,Red Mill Lievin,Fosse 10,activity:fire,2.0,,"[-0.055075400000000004, 52.896858499999993, 'Red Mill Farm']","[3.8703760000000003, 48.579552399999997, 'Fosse Ronde']","[-0.055075400000000004, 52.896858499999993, 'Red Mill Farm']",-0.055075400000000004,52.89685849999999,Red Mill Farm
1 CAVALRY DIVISION: 9 (Queen's Royal) Lancers,1917-06-30,269 274,AWD00001np AWD00001s3,Petit Sains,Fosse 10,Calonne Sur la Lys,activity:fire,3.0,,"[3.8703760000000003, 48.579552399999997, 'Fosse Ronde']","[2.6151531000000001, 50.623651099999996, 'Calonne-sur-la-Lys']","[3.8703760000000003, 48.579552399999997, 'Fosse Ronde']",3.8703760000000003,48.5795524,Fosse Ronde
1 CAVALRY DIVISION: 9 (Queen's Royal) Lancers,1917-07-31,280 281 282 283 284 285 286,AWD00001tj AWD00001te AWD00001mm AWD00001xn AWD00001um AWD00001tt AWD00001nz,Aconite Trench,Absalom,Vendin Alley,activity:fire,31.0,"[-1.013536, 51.494467, 'Trench Green']",,"[2.6042300000000003, 50.546199999999999, 'Vendin-lès-Béthune']","[-1.013536, 51.494467, 'Trench Green']",-1.013536,51.494467,Trench Green
1 CAVALRY DIVISION: 9 (Queen's Royal) Lancers,1917-11-21,310 311 312,AWD00001ol AWD00001tp AWD00001ro,Bois de Neuf,Cantaing,Noyelles,activity:fire,3.0,"[2.7932915, 48.915995500000001, 'Le Bois Neuf']","[3.1572832000000002, 50.147437400000001, 'Cantaing-sur-Escaut']","[2.3966668999999996, 50.461525899999998, 'Noyelles']","[2.7932915, 48.915995500000001, 'Le Bois Neuf']",2.7932915,48.9159955,Le Bois Neuf
1 CAVALRY DIVISION: 9 (Queen's Royal) Lancers,1918-01-18,328 333,AWD00001xo AWD00001rp,Doingt,Little Bill,Ascension Wood,activity:fire,1.0,"[2.9659142000000003, 49.922705700000002, 'Doingt']","[-0.64190360000000002, 51.8946884, 'Little Billington']",,"[2.9659142000000003, 49.922705700000002, 'Doingt']",2.9659142000000003,49.9227057,Doingt
1 CAVALRY DIVISION: 9 (Queen's Royal) Lancers,1918-01-20,329 333 334,AWD00001tr AWD00001rp AWD00001q4,Ascension Farm,A2 Sub Sector,Doingt,activity:fire,1.0,,,"[2.9659142000000003, 49.922705700000002, 'Doingt']","[2.9659142000000003, 49.922705700000002, 'Doingt']",2.9659142000000003,49.9227057,Doingt
1 CAVALRY DIVISION: 9 (Queen's Royal) Lancers,1918-01-21,334,AWD00001q4,Le Verguier,Vadencourt,A2 Sub Sector,activity:fire,1.0,"[3.1705771, 49.924188899999997, 'Le Verguier']","[3.5797222, 49.93, 'Vadencourt']",,"[3.1705771, 49.924188899999997, 'Le Verguier']",3.1705771,49.9241889,Le Verguier
1 CAVALRY DIVISION: 9 (Queen's Royal) Lancers,1918-01-23,335,AWD00001o3,Buisson Ridge,,,activity:fire,2.0,"[2.2653843999999999, 48.746781899999995, 'Verrières-le-Buisson']",,,"[2.2653843999999999, 48.746781899999995, 'Verrières-le-Buisson']",2.2653844,48.746781899999995,Verrières-le-Buisson
1 CAVALRY DIVISION: 9 (Queen's Royal) Lancers,1918-03-21,345,AWD00001xa,Doingt,Le Mesnil,,activity:fire,2.0,"[2.9659142000000003, 49.922705700000002, 'Doingt']","[-1.6958746999999998, 49.3692396, 'Le Mesnil']",,"[2.9659142000000003, 49.922705700000002, 'Doingt']",2.9659142000000003,49.9227057,Doingt
1 CAVALRY DIVISION: 9 (Queen's Royal) Lancers,1918-03-23,345,AWD00001xa,Brie Bridge,Curchy,,activity:fire,5.0,,"[2.8584223999999998, 49.776317799999994, 'Curchy']",,"[2.8584223999999998, 49.776317799999994, 'Curchy']",2.8584224,49.776317799999994,Curchy
1 CAVALRY DIVISION: 9 (Queen's Royal) Lancers,1918-03-25,346,AWD00001sg,Cerisy,Havernas,,activity:fire,1.0,"[2.6397084, 49.905282, 'Cerisy']","[2.2332408999999998, 50.036636999999999, 'Havernas']",,"[2.6397084, 49.905282, 'Cerisy']",2.6397084,49.905282,Cerisy
1 CAVALRY DIVISION: 9 (Queen's Royal) Lancers,1918-03-26,346,AWD00001sg,Buire,Havernas,,activity:fire,1.0,"[3.3308571000000002, 49.107620900000001, 'Buire']","[2.2332408999999998, 50.036636999999999, 'Havernas']",,"[3.3308571000000002, 49.107620900000001, 'Buire']",3.3308571000000002,49.1076209,Buire
1 CAVALRY DIVISION: 9 (Queen's Royal) Lancers,1918-03-27,346,AWD00001sg,Mericourt,Treux,,activity:fire,2.0,"[2.5654499999999998, 49.952129999999997, ""Mericourt-l'Abbe""]","[2.5909646, 49.957839, 'Treux']",,"[2.5654499999999998, 49.952129999999997, ""Mericourt-l'Abbe""]",2.56545,49.95213,Mericourt-l'Abbe
1 CAVALRY DIVISION: 9 (Queen's Royal) Lancers,1918-03-28,347,AWD00001r1,Bois de Vaire,Hamelet,,activity:fire,4.0,,"[3.0774468999999995, 49.938695299999999, 'Hamelet']",,"[3.0774468999999995, 49.938695299999999, 'Hamelet']",3.0774468999999995,49.9386953,Hamelet
1 CAVALRY DIVISION: 9 (Queen's Royal) Lancers,1918-04-04,349,AWD00001rh,Bussy les Daours,,,activity:fire,2.0,"[2.4329297999999997, 49.909594700000007, 'Bussy-lès-Daours']",,,"[2.4329297999999997, 49.909594700000007, 'Bussy-lès-Daours']",2.4329297999999997,49.90959470000001,Bussy-lès-Daours
1 CAVALRY DIVISION: 9 (Queen's Royal) Lancers,1918-04-09,350,AWD00001sm,Longpre,Amiens,,activity:fire,5.0,"[2.2629299999999999, 49.923450000000003, 'Longpre-les-Amiens']","[2.2956951000000001, 49.894170799999998, 'Amiens']",,"[2.2629299999999999, 49.923450000000003, 'Longpre-les-Amiens']",2.26293,49.92345,Longpre-les-Amiens
1 CAVALRY DIVISION: 9 (Queen's Royal) Lancers,1918-08-08,372 373 374,AWD00001t8 AWD00001vu AWD00001mg,Guillaucourt,Wiencourt,Caix,activity:fire,5.0,"[2.6287896000000002, 49.842454700000005, 'Guillaucourt']","[2.6116834999999998, 49.845958899999999, ""Wiencourt-l'Équipée""]","[2.6462567000000004, 49.816769399999998, 'Caix']","[2.6287896000000002, 49.842454700000005, 'Guillaucourt']",2.6287896,49.842454700000005,Guillaucourt
1 CAVALRY DIVISION: 9 (Queen's Royal) Lancers,1918-08-09,374 375 376 377,AWD00001mg AWD00001re AWD00001q5 AWD00001xg,Caix,Vrely,Meharicourt,activity:fire,19.0,"[2.6462567000000004, 49.816769399999998, 'Caix']","[2.6948099999999999, 49.798900000000003, 'Vrely']","[2.7319599999999999, 49.797710000000002, 'Meharicourt']","[2.6462567000000004, 49.816769399999998, 'Caix']",2.6462567000000004,49.8167694,Caix
1 CAVALRY DIVISION: 9 (Queen's Royal) Lancers,1918-08-12,377,AWD00001xg,Caix,Camon,,activity:fire,5.0,"[2.6462567000000004, 49.816769399999998, 'Caix']","[2.3446546000000001, 49.887424600000003, 'Camon']",,"[2.6462567000000004, 49.816769399999998, 'Caix']",2.6462567000000004,49.8167694,Caix
1 CAVALRY DIVISION: 9 (Queen's Royal) Lancers,1918-08-21,379 380,AWD00001ti AWD00001mw,Jewel Valley,Calveley Copse,Courcelles,activity:fire,7.0,,"[-0.80523030000000007, 51.042194700000003, 'Woodfield Copse']","[2.7741831000000001, 50.163614000000003, 'Courcelles-le-Comte']","[-0.80523030000000007, 51.042194700000003, 'Woodfield Copse']",-0.8052303000000001,51.0421947,Woodfield Copse
1 CAVALRY DIVISION: 9 (Queen's Royal) Lancers,1918-10-08,388 389,AWD00001w3 AWD00001sf,La Lampe Farm,Lamotte Farm,Serain,activity:fire,9.0,,"[2.5953651, 49.871098600000003, 'Lamotte-Warfusée']","[3.3666667000000001, 50.028611100000006, 'Serain']","[2.5953651, 49.871098600000003, 'Lamotte-Warfusée']",2.5953651,49.8710986,Lamotte-Warfusée
1 CAVALRY DIVISION: 9 (Queen's Royal) Lancers,1918-10-09,390,AWD00001wi,Premont,Maretz,Beaurevoir,activity:fire,2.0,"[6.0947845000000003, 48.430763700000007, 'Regnant le Premont']","[3.4181269999999997, 50.046955799999999, 'Maretz']","[3.3097221999999999, 49.997222200000003, 'Beaurevoir']","[6.0947845000000003, 48.430763700000007, 'Regnant le Premont']",6.0947845,48.43076370000001,Regnant le Premont
1 CAVALRY DIVISION: 9 (Queen's Royal) Lancers,1914-08-26,6 7,AWD00001x2 AWD00001ph,Le Cateau,Maretz,Montigny,activity:line,2.0,"[3.5399375000000002, 50.101713399999994, 'Le Cateau-Cambrésis']","[3.4181269999999997, 50.046955799999999, 'Maretz']","[3.4094023, 50.091136200000001, 'Montigny-en-Cambrésis']","[3.5399375000000002, 50.101713399999994, 'Le Cateau-Cambrésis']",3.5399375,50.101713399999994,Le Cateau-Cambrésis
1 CAVALRY DIVISION: 9 (Queen's Royal) Lancers,1914-08-28,6 7,AWD00001x2 AWD00001ph,Saint Quentin,Seraucourt,Flavy-le-Meldeux,activity:line,2.0,"[3.2863888000000001, 49.848611100000007, 'Saint-Quentin']","[5.2396957999999998, 48.9629555, 'Seraucourt']","[3.0459495999999997, 49.686038200000006, 'Flavy-le-Meldeux']","[3.2863888000000001, 49.848611100000007, 'Saint-Quentin']",3.2863888,49.84861110000001,Saint-Quentin
1 CAVALRY DIVISION: 9 (Queen's Royal) Lancers,1914-08-31,8,AWD00001w1,Foret de Compiegne,Chevrieries,,activity:line,1.0,"[2.8263171000000002, 49.417949700000001, 'Compiègne']","[-0.099520600000000001, 46.689049400000002, 'Les Chevrieres']",,"[2.8263171000000002, 49.417949700000001, 'Compiègne']",2.8263171000000002,49.4179497,Compiègne
1 CAVALRY DIVISION: 9 (Queen's Royal) Lancers,1914-09-14,17 18,AWD00001qw AWD00001ur,Longueval,Pargnan,Bourg,activity:line,1.0,"[2.8039931999999999, 50.026224299999996, 'Longueval']","[3.6914712000000001, 49.400321399999996, 'Pargnan']","[3.6540786000000001, 49.396351600000003, 'Bourg-et-Comin']","[2.8039931999999999, 50.026224299999996, 'Longueval']",2.8039932,50.026224299999996,Longueval
1 CAVALRY DIVISION: 9 (Queen's Royal) Lancers,1914-09-14,18,AWD00001ur,Pargnan,Soupir,Vendresse,activity:line,3.0,"[3.6914712000000001, 49.400321399999996, 'Pargnan']","[3.5939800000000002, 49.406300000000002, 'Soupir']","[4.7929447999999999, 49.603653999999999, 'Vendresse']","[3.6914712000000001, 49.400321399999996, 'Pargnan']",3.6914712,49.400321399999996,Pargnan
1 CAVALRY DIVISION: 9 (Queen's Royal) Lancers,1914-09-16,18,AWD00001ur,Chavonne,,,activity:line,2.0,"[3.5695699999999997, 49.405099999999997, 'Chavonne']",,,"[3.5695699999999997, 49.405099999999997, 'Chavonne']",3.5695699999999997,49.4051,Chavonne
1 CAVALRY DIVISION: 9 (Queen's Royal) Lancers,1914-09-17,18,AWD00001ur,Chavonne,,,activity:line,1.0,"[3.5695699999999997, 49.405099999999997, 'Chavonne']",,,"[3.5695699999999997, 49.405099999999997, 'Chavonne']",3.5695699999999997,49.4051,Chavonne
1 CAVALRY DIVISION: 9 (Queen's Royal) Lancers,1914-09-18,19,AWD00001qs,Chavonne,,,activity:line,1.0,"[3.5695699999999997, 49.405099999999997, 'Chavonne']",,,"[3.5695699999999997, 49.405099999999997, 'Chavonne']",3.5695699999999997,49.4051,Chavonne
1 CAVALRY DIVISION: 9 (Queen's Royal) Lancers,1914-09-21,19,AWD00001qs,Paissy,Longueval,,activity:line,2.0,"[3.7019684999999996, 49.424531000000002, 'Paissy']","[2.8039931999999999, 50.026224299999996, 'Longueval']",,"[3.7019684999999996, 49.424531000000002, 'Paissy']",3.7019684999999996,49.424531,Paissy
1 CAVALRY DIVISION: 9 (Queen's Royal) Lancers,1914-09-21,19,AWD00001qs,Longueval,Paissy,,activity:line,1.0,"[2.8039931999999999, 50.026224299999996, 'Longueval']","[3.7019684999999996, 49.424531000000002, 'Paissy']",,"[2.8039931999999999, 50.026224299999996, 'Longueval']",2.8039932,50.026224299999996,Longueval
1 CAVALRY DIVISION: 9 (Queen's Royal) Lancers,1914-09-22,19,AWD00001qs,Paissy,Longueval,,activity:line,1.0,"[3.7019684999999996, 49.424531000000002, 'Paissy']","[2.8039931999999999, 50.026224299999996, 'Longueval']",,"[3.7019684999999996, 49.424531000000002, 'Paissy']",3.7019684999999996,49.424531,Paissy
1 CAVALRY DIVISION: 9 (Queen's Royal) Lancers,1914-09-24,19,AWD00001qs,Paissy,,,activity:line,2.0,"[3.7019684999999996, 49.424531000000002, 'Paissy']",,,"[3.7019684999999996, 49.424531000000002, 'Paissy']",3.7019684999999996,49.424531,Paissy
1 CAVALRY DIVISION: 9 (Queen's Royal) Lancers,1914-09-26,19,AWD00001qs,Paissy,,,activity:line,1.0,"[3.7019684999999996, 49.424531000000002, 'Paissy']",,,"[3.7019684999999996, 49.424531000000002, 'Paissy']",3.7019684999999996,49.424531,Paissy
1 CAVALRY DIVISION: 9 (Queen's Royal) Lancers,1914-10-04,25,AWD00001v7,Parcy-Tigny,Parly-Tigny,Chassemy,activity:line,1.0,"[3.3358333, 49.279444399999996, 'Parcy-et-Tigny']","[3.3358333, 49.279444399999996, 'Parcy-et-Tigny']","[3.5077777999999999, 49.380000000000003, 'Chassemy']","[3.3358333, 49.279444399999996, 'Parcy-et-Tigny']",3.3358333,49.279444399999996,Parcy-et-Tigny
1 CAVALRY DIVISION: 9 (Queen's Royal) Lancers,1914-10-07,26,AWD00001vs,Malpart,Montdidier,,activity:line,3.0,"[2.4977478999999998, 49.692307399999997, 'Malpart']","[2.5701959999999997, 49.646020399999998, 'Montdidier']",,"[2.4977478999999998, 49.692307399999997, 'Malpart']",2.4977479,49.6923074,Malpart
1 CAVALRY DIVISION: 9 (Queen's Royal) Lancers,1914-10-10,26 27,AWD00001vs AWD00001mh,Villers Brulin,Beaudricourt,,activity:line,1.0,"[3.0922686000000001, 49.257356799999997, 'Villers-Cotterêts']","[2.4084852999999997, 50.248495299999995, 'Beaudricourt']",,"[3.0922686000000001, 49.257356799999997, 'Villers-Cotterêts']",3.0922686,49.2573568,Villers-Cotterêts
1 CAVALRY DIVISION: 9 (Queen's Royal) Lancers,1914-10-11,27,AWD00001mh,Vierhouck,Houdain,Verterue,activity:line,4.0,,"[2.5367842, 50.453812599999999, 'Houdain']","[5.5060689000000007, 49.716401700000006, 'Verterme']","[2.5367842, 50.453812599999999, 'Houdain']",2.5367842,50.4538126,Houdain
1 CAVALRY DIVISION: 9 (Queen's Royal) Lancers,1914-10-12,27,AWD00001mh,Strazeele,Vieux Berquin,,activity:line,1.0,"[2.6322141000000001, 50.726931399999998, 'Strazeele']","[2.6437922999999999, 50.694805200000005, 'Vieux-Berquin']",,"[2.6322141000000001, 50.726931399999998, 'Strazeele']",2.6322141,50.7269314,Strazeele
1 CAVALRY DIVISION: 9 (Queen's Royal) Lancers,1914-10-15,28,AWD00001pm,Mont Rouge,Locre,,activity:line,1.0,"[4.7860712000000003, 45.857327900000001, 'Mont Rouge']","[11.232014100000001, 45.711117600000001, 'Locre']",,"[4.7860712000000003, 45.857327900000001, 'Mont Rouge']",4.7860712,45.8573279,Mont Rouge
1 CAVALRY DIVISION: 9 (Queen's Royal) Lancers,1914-10-17,28 29,AWD00001pm AWD00001sh,Lys,Houplines,Neuve Eglise,activity:line,1.0,"[-0.35256009999999999, 43.130034100000003, 'Lys']","[2.9104188999999998, 50.690458899999996, 'Houplines']","[2.9834299999999998, 44.927869999999999, 'Neuveglise']","[-0.35256009999999999, 43.130034100000003, 'Lys']",-0.3525601,43.1300341,Lys
1 CAVALRY DIVISION: 9 (Queen's Royal) Lancers,1914-10-20,30,AWD00001qb,Messines,Ploegsteert,Saint Ives,activity:line,2.0,"[0.44687090000000002, 44.416204399999998, 'Messines']","[2.8803139, 50.726220399999995, 'Ploegsteert']","[-0.076560000000000003, 52.332509999999999, 'Saint Ives']","[0.44687090000000002, 44.416204399999998, 'Messines']",0.4468709,44.4162044,Messines
1 CAVALRY DIVISION: 9 (Queen's Royal) Lancers,1914-10-22,31,AWD00001ud,Le Gheer,Wulverghem,Ploegsteert,activity:line,2.0,"[2.9120512000000001, 50.731510399999998, 'Le Gheer']","[2.85243, 50.760210000000001, 'Wulvergem']","[2.8803139, 50.726220399999995, 'Ploegsteert']","[2.9120512000000001, 50.731510399999998, 'Le Gheer']",2.9120512,50.7315104,Le Gheer
1 CAVALRY DIVISION: 9 (Queen's Royal) Lancers,1914-10-24,31,AWD00001ud,Messines,,,activity:line,4.0,"[0.44687090000000002, 44.416204399999998, 'Messines']",,,"[0.44687090000000002, 44.416204399999998, 'Messines']",0.4468709,44.4162044,Messines
1 CAVALRY DIVISION: 9 (Queen's Royal) Lancers,1914-10-28,32,AWD00001pk,La Couture,Neuve Chapelle,,activity:line,1.0,"[2.7129084999999997, 50.5801874, 'La Couture']","[2.7799148999999996, 50.583883, 'Neuve-Chapelle']",,"[2.7129084999999997, 50.5801874, 'La Couture']",2.7129084999999997,50.5801874,La Couture
1 CAVALRY DIVISION: 9 (Queen's Royal) Lancers,1914-10-30,33,AWD00001v0,Neuve Eglise,Messines,,activity:line,3.0,"[2.9834299999999998, 44.927869999999999, 'Neuveglise']","[0.44687090000000002, 44.416204399999998, 'Messines']",,"[2.9834299999999998, 44.927869999999999, 'Neuveglise']",2.98343,44.92787,Neuveglise
1 CAVALRY DIVISION: 9 (Queen's Royal) Lancers,1914-10-31,33 34 38 40 41 42,AWD00001v0 AWD00001s2 AWD00001sr AWD00001pu AWD00001qp AWD00001s4,River Lys,Messines,,activity:line,1.0,,"[0.44687090000000002, 44.416204399999998, 'Messines']",,"[0.44687090000000002, 44.416204399999998, 'Messines']",0.4468709,44.4162044,Messines
1 CAVALRY DIVISION: 9 (Queen's Royal) Lancers,1914-11-01,47,AWD00001qh,Messines,,,activity:line,1.0,"[0.44687090000000002, 44.416204399999998, 'Messines']",,,"[0.44687090000000002, 44.416204399999998, 'Messines']",0.4468709,44.4162044,Messines
1 CAVALRY DIVISION: 9 (Queen's Royal) Lancers,1914-11-02,47,AWD00001qh,Wytchaete,Kemmel,Messines,activity:line,4.0,,"[2.8258709, 50.7828552, 'Kemmel']","[0.44687090000000002, 44.416204399999998, 'Messines']","[2.8258709, 50.7828552, 'Kemmel']",2.8258709,50.7828552,Kemmel
1 CAVALRY DIVISION: 9 (Queen's Royal) Lancers,1914-11-03,47,AWD00001qh,Messines,,,activity:line,1.0,"[0.44687090000000002, 44.416204399999998, 'Messines']",,,"[0.44687090000000002, 44.416204399999998, 'Messines']",0.4468709,44.4162044,Messines
1 CAVALRY DIVISION: 9 (Queen's Royal) Lancers,1914-11-05,47 48,AWD00001qh AWD00001ny,Meteren,Lindenhoek,Messines,activity:line,3.0,"[5.2832385999999998, 51.863605, 'Meteren']","[2.8166699999999998, 50.766669999999998, 'Lindenhoek']","[0.44687090000000002, 44.416204399999998, 'Messines']","[5.2832385999999998, 51.863605, 'Meteren']",5.2832386,51.863605,Meteren
1 CAVALRY DIVISION: 9 (Queen's Royal) Lancers,1914-11-06,48,AWD00001ny,Wulverghem,Neuve Eglise,Lindenhoek,activity:line,3.0,"[2.85243, 50.760210000000001, 'Wulvergem']","[2.9834299999999998, 44.927869999999999, 'Neuveglise']","[2.8166699999999998, 50.766669999999998, 'Lindenhoek']","[2.85243, 50.760210000000001, 'Wulvergem']",2.85243,50.76021,Wulvergem
1 CAVALRY DIVISION: 9 (Queen's Royal) Lancers,1914-11-07,48 49,AWD00001ny AWD00001so,Wulverghem,Meteren,,activity:line,3.0,"[2.85243, 50.760210000000001, 'Wulvergem']","[5.2832385999999998, 51.863605, 'Meteren']",,"[2.85243, 50.760210000000001, 'Wulvergem']",2.85243,50.76021,Wulvergem
1 CAVALRY DIVISION: 9 (Queen's Royal) Lancers,1914-11-09,49,AWD00001so,Wulverghen,Meteren,,activity:line,1.0,"[2.85243, 50.760210000000001, 'Wulvergem']","[5.2832385999999998, 51.863605, 'Meteren']",,"[2.85243, 50.760210000000001, 'Wulvergem']",2.85243,50.76021,Wulvergem
1 CAVALRY DIVISION: 9 (Queen's Royal) Lancers,1914-11-10,49,AWD00001so,Wulverghen,Messines,,activity:line,2.0,"[2.85243, 50.760210000000001, 'Wulvergem']","[0.44687090000000002, 44.416204399999998, 'Messines']",,"[2.85243, 50.760210000000001, 'Wulvergem']",2.85243,50.76021,Wulvergem
1 CAVALRY DIVISION: 9 (Queen's Royal) Lancers,1914-11-12,50,AWD00001s8,Ypres,,,activity:line,1.0,"[2.8846047000000001, 50.852194700000005, 'Ypres']",,,"[2.8846047000000001, 50.852194700000005, 'Ypres']",2.8846047,50.852194700000005,Ypres
1 CAVALRY DIVISION: 9 (Queen's Royal) Lancers,1914-11-13,50,AWD00001s8,Ypres,Zillebeke,,activity:line,6.0,"[2.8846047000000001, 50.852194700000005, 'Ypres']","[2.9224028999999998, 50.834638500000004, 'Zillebeke']",,"[2.8846047000000001, 50.852194700000005, 'Ypres']",2.8846047,50.852194700000005,Ypres
1 CAVALRY DIVISION: 9 (Queen's Royal) Lancers,1914-11-17,51 52,AWD00001mk AWD00001x4,Menin,Chateau Reichenburg,,activity:line,4.0,"[3.1156565000000001, 50.796987899999998, 'Menin']","[1.8217209999999999, 49.285037799999998, 'Trie-Château']",,"[3.1156565000000001, 50.796987899999998, 'Menin']",3.1156565,50.7969879,Menin
1 CAVALRY DIVISION: 9 (Queen's Royal) Lancers,1914-11-18,52 53,AWD00001x4 AWD00001op,Menin,,,activity:line,1.0,"[3.1156565000000001, 50.796987899999998, 'Menin']",,,"[3.1156565000000001, 50.796987899999998, 'Menin']",3.1156565,50.7969879,Menin
1 CAVALRY DIVISION: 9 (Queen's Royal) Lancers,1914-11-22,54,AWD00001my,Kemmel,,,activity:line,4.0,"[2.8258709, 50.7828552, 'Kemmel']",,,"[2.8258709, 50.7828552, 'Kemmel']",2.8258709,50.7828552,Kemmel
1 CAVALRY DIVISION: 9 (Queen's Royal) Lancers,1914-12-05,59,AWD00001vq,Meteren,,,activity:line,1.0,"[5.2832385999999998, 51.863605, 'Meteren']",,,"[5.2832385999999998, 51.863605, 'Meteren']",5.2832386,51.863605,Meteren
1 CAVALRY DIVISION: 9 (Queen's Royal) Lancers,1915-02-25,74,AWD00001us,Zillebeke,,,activity:line,2.0,"[2.9224028999999998, 50.834638500000004, 'Zillebeke']",,,"[2.9224028999999998, 50.834638500000004, 'Zillebeke']",2.9224029,50.834638500000004,Zillebeke
1 CAVALRY DIVISION: 9 (Queen's Royal) Lancers,1915-02-26,74,AWD00001us,Zillebeke,,,activity:line,1.0,"[2.9224028999999998, 50.834638500000004, 'Zillebeke']",,,"[2.9224028999999998, 50.834638500000004, 'Zillebeke']",2.9224029,50.834638500000004,Zillebeke
1 CAVALRY DIVISION: 9 (Queen's Royal) Lancers,1915-02-28,74 75,AWD00001us AWD00001wl,Ypres,Cavans Dugout,Ecole de Bienfaisance,activity:line,1.0,"[2.8846047000000001, 50.852194700000005, 'Ypres']",,,"[2.8846047000000001, 50.852194700000005, 'Ypres']",2.8846047,50.852194700000005,Ypres
1 CAVALRY DIVISION: 9 (Queen's Royal) Lancers,1915-03-01,76,AWD00001of,Zillebeke,,,activity:line,5.0,"[2.9224028999999998, 50.834638500000004, 'Zillebeke']",,,"[2.9224028999999998, 50.834638500000004, 'Zillebeke']",2.9224029,50.834638500000004,Zillebeke
1 CAVALRY DIVISION: 9 (Queen's Royal) Lancers,1915-03-02,76,AWD00001of,Zillebeke,,,activity:line,7.0,"[2.9224028999999998, 50.834638500000004, 'Zillebeke']",,,"[2.9224028999999998, 50.834638500000004, 'Zillebeke']",2.9224029,50.834638500000004,Zillebeke
1 CAVALRY DIVISION: 9 (Queen's Royal) Lancers,1915-03-04,77 78,AWD00001os AWD00001pc,Zillebeke,Ecole de Bienfaisance,Ecole de Bien,activity:line,7.0,"[2.9224028999999998, 50.834638500000004, 'Zillebeke']",,,"[2.9224028999999998, 50.834638500000004, 'Zillebeke']",2.9224029,50.834638500000004,Zillebeke
1 CAVALRY DIVISION: 9 (Queen's Royal) Lancers,1915-04-23,84 85,AWD00001v5 AWD00001nd,Brielen,Poperinghe,,activity:line,3.0,"[2.8475388000000001, 50.8689046, 'Brielen']","[2.7265900000000003, 50.853859999999997, 'Poperinge']",,"[2.8475388000000001, 50.8689046, 'Brielen']",2.8475388,50.8689046,Brielen
1 CAVALRY DIVISION: 9 (Queen's Royal) Lancers,1915-04-24,85,AWD00001nd,Elverdinghe,Brielen,,activity:line,4.0,"[2.8086072093093635, 50.881201050000001, nan]","[2.8475388000000001, 50.8689046, 'Brielen']",,"[2.8086072093093635, 50.881201050000001, nan]",2.8086072093093635,50.88120105,
1 CAVALRY DIVISION: 9 (Queen's Royal) Lancers,1915-04-26,85 86,AWD00001nd AWD00001xw,Woesten,,,activity:line,1.0,"[2.7903755000000001, 50.900419399999997, 'Woesten']",,,"[2.7903755000000001, 50.900419399999997, 'Woesten']",2.7903755,50.9004194,Woesten
1 CAVALRY DIVISION: 9 (Queen's Royal) Lancers,1915-04-27,86,AWD00001xw,Woesten,,,activity:line,3.0,"[2.7903755000000001, 50.900419399999997, 'Woesten']",,,"[2.7903755000000001, 50.900419399999997, 'Woesten']",2.7903755,50.9004194,Woesten
1 CAVALRY DIVISION: 9 (Queen's Royal) Lancers,1915-04-29,86,AWD00001xw,Meteren,Wormhoudt,,activity:line,1.0,"[5.2832385999999998, 51.863605, 'Meteren']","[2.4690099999999999, 50.88129, 'Wormhout']",,"[5.2832385999999998, 51.863605, 'Meteren']",5.2832386,51.863605,Meteren
1 CAVALRY DIVISION: 9 (Queen's Royal) Lancers,1915-05-09,93,AWD00001t6,Meteren,Menin,Ypres,activity:line,5.0,"[5.2832385999999998, 51.863605, 'Meteren']","[3.1156565000000001, 50.796987899999998, 'Menin']","[2.8846047000000001, 50.852194700000005, 'Ypres']","[5.2832385999999998, 51.863605, 'Meteren']",5.2832386,51.863605,Meteren
1 CAVALRY DIVISION: 9 (Queen's Royal) Lancers,1915-05-10,94,AWD00001xz,Ypres,Hooge,,activity:line,1.0,"[2.8846047000000001, 50.852194700000005, 'Ypres']","[8.5455245268742352, 54.568344750000001, 'Hooge']",,"[2.8846047000000001, 50.852194700000005, 'Ypres']",2.8846047,50.852194700000005,Ypres
1 CAVALRY DIVISION: 9 (Queen's Royal) Lancers,1915-05-12,94,AWD00001xz,Wieltje,,,activity:line,2.0,"[2.9175338000000002, 50.870688399999999, 'Wieltje']",,,"[2.9175338000000002, 50.870688399999999, 'Wieltje']",2.9175338,50.8706884,Wieltje
1 CAVALRY DIVISION: 9 (Queen's Royal) Lancers,1915-05-13,94,AWD00001xz,Wieltje,,,activity:line,1.0,"[2.9175338000000002, 50.870688399999999, 'Wieltje']",,,"[2.9175338000000002, 50.870688399999999, 'Wieltje']",2.9175338,50.8706884,Wieltje
1 CAVALRY DIVISION: 9 (Queen's Royal) Lancers,1915-05-14,95,AWD00001xx,Vlammertinghe,Ypres,,activity:line,1.0,"[2.8202400000000001, 50.854849999999999, 'Vlamertinge']","[2.8846047000000001, 50.852194700000005, 'Ypres']",,"[2.8202400000000001, 50.854849999999999, 'Vlamertinge']",2.82024,50.85485,Vlamertinge
1 CAVALRY DIVISION: 9 (Queen's Royal) Lancers,1915-05-17,95,AWD00001xx,Meteren,Menin,Ypres,activity:line,4.0,"[5.2832385999999998, 51.863605, 'Meteren']","[3.1156565000000001, 50.796987899999998, 'Menin']","[2.8846047000000001, 50.852194700000005, 'Ypres']","[5.2832385999999998, 51.863605, 'Meteren']",5.2832386,51.863605,Meteren
1 CAVALRY DIVISION: 9 (Queen's Royal) Lancers,1915-05-19,95 96,AWD00001xx AWD00001pr,Menin,Menin Road,,activity:line,4.0,"[3.1156565000000001, 50.796987899999998, 'Menin']",,,"[3.1156565000000001, 50.796987899999998, 'Menin']",3.1156565,50.7969879,Menin
1 CAVALRY DIVISION: 9 (Queen's Royal) Lancers,1915-05-20,96,AWD00001pr,Menin,,,activity:line,1.0,"[3.1156565000000001, 50.796987899999998, 'Menin']",,,"[3.1156565000000001, 50.796987899999998, 'Menin']",3.1156565,50.7969879,Menin
1 CAVALRY DIVISION: 9 (Queen's Royal) Lancers,1915-05-21,96,AWD00001pr,Ypres,Menin,,activity:line,1.0,"[2.8846047000000001, 50.852194700000005, 'Ypres']","[3.1156565000000001, 50.796987899999998, 'Menin']",,"[2.8846047000000001, 50.852194700000005, 'Ypres']",2.8846047,50.852194700000005,Ypres
1 CAVALRY DIVISION: 9 (Queen's Royal) Lancers,1915-05-23,96 97,AWD00001pr AWD00001r7,Ypres,Hooge,,activity:line,4.0,"[2.8846047000000001, 50.852194700000005, 'Ypres']","[8.5455245268742352, 54.568344750000001, 'Hooge']",,"[2.8846047000000001, 50.852194700000005, 'Ypres']",2.8846047,50.852194700000005,Ypres
1 CAVALRY DIVISION: 9 (Queen's Royal) Lancers,1915-06-29,108,AWD00001rt,Cassel,,,activity:line,1.0,"[2.4868313999999998, 50.800001100000003, 'Cassel']",,,"[2.4868313999999998, 50.800001100000003, 'Cassel']",2.4868314,50.8000011,Cassel
1 CAVALRY DIVISION: 9 (Queen's Royal) Lancers,1915-09-26,126 127,AWD00001uz AWD00001pz,Fouqieres-Lez-Bethune,Drouvin-le-Marais,,activity:line,1.0,"[2.6099900000000003, 50.515340000000002, 'Fouquieres-les-Bethune']","[2.6276138000000002, 50.4934151, 'Drouvin-le-Marais']",,"[2.6099900000000003, 50.515340000000002, 'Fouquieres-les-Bethune']",2.6099900000000003,50.51534,Fouquieres-les-Bethune
1 CAVALRY DIVISION: 9 (Queen's Royal) Lancers,1915-09-27,127,AWD00001pz,Fouqieres-Lez-Bethune,,,activity:line,1.0,"[2.6099900000000003, 50.515340000000002, 'Fouquieres-les-Bethune']",,,"[2.6099900000000003, 50.515340000000002, 'Fouquieres-les-Bethune']",2.6099900000000003,50.51534,Fouquieres-les-Bethune
1 CAVALRY DIVISION: 9 (Queen's Royal) Lancers,1915-09-28,127,AWD00001pz,Fouqieres-Lez-Bethune,,,activity:line,1.0,"[2.6099900000000003, 50.515340000000002, 'Fouquieres-les-Bethune']",,,"[2.6099900000000003, 50.515340000000002, 'Fouquieres-les-Bethune']",2.6099900000000003,50.51534,Fouquieres-les-Bethune
1 CAVALRY DIVISION: 9 (Queen's Royal) Lancers,1915-10-04,130,AWD00001pe,Ligny-Lez-Aire,,,activity:line,1.0,"[2.3492063999999999, 50.557334900000001, 'Ligny-lès-Aire']",,,"[2.3492063999999999, 50.557334900000001, 'Ligny-lès-Aire']",2.3492064,50.5573349,Ligny-lès-Aire
1 CAVALRY DIVISION: 9 (Queen's Royal) Lancers,1916-06-01,174,AWD00001nc,Enquin,,,activity:line,1.0,"[1.83585, 50.57226, 'Enquin-sur-Baillons']",,,"[1.83585, 50.57226, 'Enquin-sur-Baillons']",1.83585,50.57226,Enquin-sur-Baillons
1 CAVALRY DIVISION: 9 (Queen's Royal) Lancers,1917-04-11,248,AWD00001se,Greenland Hill,Hervin Farm,Fampoux,activity:line,1.0,,,"[2.8686432000000002, 50.302264899999997, 'Fampoux']","[2.8686432000000002, 50.302264899999997, 'Fampoux']",2.8686432,50.3022649,Fampoux
1 CAVALRY DIVISION: 9 (Queen's Royal) Lancers,1917-04-12,248 249 255,AWD00001se AWD00001rs AWD00001vz,Arras,Blangy,Frevin Capelle,activity:line,1.0,"[2.7772210999999998, 50.291047999999996, 'Arras']","[2.8007122000000004, 50.301505499999998, 'Saint-Laurent-Blangy']","[2.6347999999999998, 50.348410000000001, 'Frevin-Capelle']","[2.7772210999999998, 50.291047999999996, 'Arras']",2.7772210999999998,50.291047999999996,Arras
1 CAVALRY DIVISION: 9 (Queen's Royal) Lancers,1917-04-30,253 254 255,AWD00001mc AWD00001ry AWD00001vz,Samer,Le Biez,Hersin,activity:line,1.0,"[1.7469188000000002, 50.639271700000002, 'Samer']","[-2.0264053, 48.1804159, 'Le Biez']","[2.6484953999999998, 50.447235999999997, 'Hersin-Coupigny']","[1.7469188000000002, 50.639271700000002, 'Samer']",1.7469188000000002,50.6392717,Samer
1 CAVALRY DIVISION: 9 (Queen's Royal) Lancers,1917-06-20,268 271 272,AWD00001uh AWD00001qc AWD00001s6,Calonne,Calonne Sur la Lys,Grenay,activity:line,1.0,"[3.4371661000000002, 50.578325, 'Calonne']","[2.6151531000000001, 50.623651099999996, 'Calonne-sur-la-Lys']","[2.7450299999999999, 50.449800000000003, 'Grenay']","[3.4371661000000002, 50.578325, 'Calonne']",3.4371661000000002,50.578325,Calonne
1 CAVALRY DIVISION: 9 (Queen's Royal) Lancers,1917-07-31,280 281 282 283 284 285 286,AWD00001tj AWD00001te AWD00001mm AWD00001xn AWD00001um AWD00001tt AWD00001nz,Aconite Trench,Absalom,Vendin Alley,activity:line,15.0,"[-1.013536, 51.494467, 'Trench Green']",,"[2.6042300000000003, 50.546199999999999, 'Vendin-lès-Béthune']","[-1.013536, 51.494467, 'Trench Green']",-1.013536,51.494467,Trench Green
1 CAVALRY DIVISION: 9 (Queen's Royal) Lancers,1917-11-20,309 310,AWD00001mx AWD00001ol,Flesguieres,Canal de l'Escaut,Noyelles,activity:line,6.0,"[1.7594900000000002, 44.81324, 'Falguieres']",,"[2.3966668999999996, 50.461525899999998, 'Noyelles']","[1.7594900000000002, 44.81324, 'Falguieres']",1.7594900000000002,44.81324,Falguieres
1 CAVALRY DIVISION: 9 (Queen's Royal) Lancers,1917-11-21,310 311 312,AWD00001ol AWD00001tp AWD00001ro,Bois de Neuf,Cantaing,Noyelles,activity:line,2.0,"[2.7932915, 48.915995500000001, 'Le Bois Neuf']","[3.1572832000000002, 50.147437400000001, 'Cantaing-sur-Escaut']","[2.3966668999999996, 50.461525899999998, 'Noyelles']","[2.7932915, 48.915995500000001, 'Le Bois Neuf']",2.7932915,48.9159955,Le Bois Neuf
1 CAVALRY DIVISION: 9 (Queen's Royal) Lancers,1917-11-22,313,AWD00001tq,Ribecourt,Trescault,Bourlon Wood,activity:line,2.0,"[3.1307700000000001, 50.110579999999999, 'Ribecourt-la-Tour']","[3.09213, 50.09019, 'Trescault']",,"[3.1307700000000001, 50.110579999999999, 'Ribecourt-la-Tour']",3.13077,50.11058,Ribecourt-la-Tour
1 CAVALRY DIVISION: 9 (Queen's Royal) Lancers,1917-11-25,314,AWD00001ua,Graincourt,Metz,,activity:line,1.0,"[1.1859909, 49.937305000000002, 'Graincourt']","[6.1763552000000006, 49.119696399999995, 'Metz']",,"[1.1859909, 49.937305000000002, 'Graincourt']",1.1859909,49.937305,Graincourt
1 CAVALRY DIVISION: 9 (Queen's Royal) Lancers,1918-01-14,327 328,AWD00001w9 AWD00001xo,Doingt,,,activity:line,1.0,"[2.9659142000000003, 49.922705700000002, 'Doingt']",,,"[2.9659142000000003, 49.922705700000002, 'Doingt']",2.9659142000000003,49.9227057,Doingt
1 CAVALRY DIVISION: 9 (Queen's Royal) Lancers,1918-01-15,328,AWD00001xo,Doingt,,,activity:line,2.0,"[2.9659142000000003, 49.922705700000002, 'Doingt']",,,"[2.9659142000000003, 49.922705700000002, 'Doingt']",2.9659142000000003,49.9227057,Doingt
1 CAVALRY DIVISION: 9 (Queen's Royal) Lancers,1918-01-16,332,AWD00001wq,Le Verguier,Ascension Farm,Doingt,activity:line,3.0,"[3.1705771, 49.924188899999997, 'Le Verguier']",,"[2.9659142000000003, 49.922705700000002, 'Doingt']","[3.1705771, 49.924188899999997, 'Le Verguier']",3.1705771,49.9241889,Le Verguier
1 CAVALRY DIVISION: 9 (Queen's Royal) Lancers,1918-01-18,328 333,AWD00001xo AWD00001rp,Doingt,Little Bill,Ascension Wood,activity:line,2.0,"[2.9659142000000003, 49.922705700000002, 'Doingt']","[-0.64190360000000002, 51.8946884, 'Little Billington']",,"[2.9659142000000003, 49.922705700000002, 'Doingt']",2.9659142000000003,49.9227057,Doingt
1 CAVALRY DIVISION: 9 (Queen's Royal) Lancers,1918-01-20,329 333 334,AWD00001tr AWD00001rp AWD00001q4,Ascension Farm,A2 Sub Sector,Doingt,activity:line,3.0,,,"[2.9659142000000003, 49.922705700000002, 'Doingt']","[2.9659142000000003, 49.922705700000002, 'Doingt']",2.9659142000000003,49.9227057,Doingt
1 CAVALRY DIVISION: 9 (Queen's Royal) Lancers,1918-01-30,330,AWD00001n8,Doingt,,,activity:line,1.0,"[2.9659142000000003, 49.922705700000002, 'Doingt']",,,"[2.9659142000000003, 49.922705700000002, 'Doingt']",2.9659142000000003,49.9227057,Doingt
1 CAVALRY DIVISION: 9 (Queen's Royal) Lancers,1918-02-21,341,AWD00001p0,Valeureux,Doingt,,activity:line,1.0,"[5.5730548000000004, 50.646836100000002, 'ASBL  Le Valeureux ']","[2.9659142000000003, 49.922705700000002, 'Doingt']",,"[5.5730548000000004, 50.646836100000002, 'ASBL  Le Valeureux ']",5.5730548,50.6468361,ASBL  Le Valeureux 
1 CAVALRY DIVISION: 9 (Queen's Royal) Lancers,1918-02-23,341,AWD00001p0,Doingt,,,activity:line,2.0,"[2.9659142000000003, 49.922705700000002, 'Doingt']",,,"[2.9659142000000003, 49.922705700000002, 'Doingt']",2.9659142000000003,49.9227057,Doingt
1 CAVALRY DIVISION: 9 (Queen's Royal) Lancers,1918-02-27,342,AWD00001v3,Doingt,,,activity:line,1.0,"[2.9659142000000003, 49.922705700000002, 'Doingt']",,,"[2.9659142000000003, 49.922705700000002, 'Doingt']",2.9659142000000003,49.9227057,Doingt
1 CAVALRY DIVISION: 9 (Queen's Royal) Lancers,1918-03-22,345,AWD00001xa,Athies,,,activity:line,1.0,"[2.9803962000000004, 49.854144099999999, 'Athies']",,,"[2.9803962000000004, 49.854144099999999, 'Athies']",2.9803962000000004,49.8541441,Athies
1 CAVALRY DIVISION: 9 (Queen's Royal) Lancers,1918-03-25,346,AWD00001sg,Cerisy,Havernas,,activity:line,1.0,"[2.6397084, 49.905282, 'Cerisy']","[2.2332408999999998, 50.036636999999999, 'Havernas']",,"[2.6397084, 49.905282, 'Cerisy']",2.6397084,49.905282,Cerisy
1 CAVALRY DIVISION: 9 (Queen's Royal) Lancers,1918-03-31,347,AWD00001r1,Daours,Bois de Tailloux,Bois d'Aquenne,activity:line,5.0,"[2.4479053, 49.902119399999997, 'Daours']","[2.5956782000000005, 50.119868100000005, 'Sailly-au-Bois']",,"[2.4479053, 49.902119399999997, 'Daours']",2.4479053,49.9021194,Daours
1 CAVALRY DIVISION: 9 (Queen's Royal) Lancers,1918-04-01,349,AWD00001rh,Bussy les Daours,,,activity:line,5.0,"[2.4329297999999997, 49.909594700000007, 'Bussy-lès-Daours']",,,"[2.4329297999999997, 49.909594700000007, 'Bussy-lès-Daours']",2.4329297999999997,49.90959470000001,Bussy-lès-Daours
1 CAVALRY DIVISION: 9 (Queen's Royal) Lancers,1918-04-03,349,AWD00001rh,Bussy les Daours,,,activity:line,2.0,"[2.4329297999999997, 49.909594700000007, 'Bussy-lès-Daours']",,,"[2.4329297999999997, 49.909594700000007, 'Bussy-lès-Daours']",2.4329297999999997,49.90959470000001,Bussy-lès-Daours
1 CAVALRY DIVISION: 9 (Queen's Royal) Lancers,1918-04-03,349,AWD00001rh,Bussy les Daours,,,activity:line,1.0,"[2.4329297999999997, 49.909594700000007, 'Bussy-lès-Daours']",,,"[2.4329297999999997, 49.909594700000007, 'Bussy-lès-Daours']",2.4329297999999997,49.90959470000001,Bussy-lès-Daours
1 CAVALRY DIVISION: 9 (Queen's Royal) Lancers,1918-04-09,350,AWD00001sm,Longpre,Amiens,,activity:line,1.0,"[2.2629299999999999, 49.923450000000003, 'Longpre-les-Amiens']","[2.2956951000000001, 49.894170799999998, 'Amiens']",,"[2.2629299999999999, 49.923450000000003, 'Longpre-les-Amiens']",2.26293,49.92345,Longpre-les-Amiens
1 CAVALRY DIVISION: 9 (Queen's Royal) Lancers,1918-08-08,372 373 374,AWD00001t8 AWD00001vu AWD00001mg,Guillaucourt,Wiencourt,Caix,activity:line,3.0,"[2.6287896000000002, 49.842454700000005, 'Guillaucourt']","[2.6116834999999998, 49.845958899999999, ""Wiencourt-l'Équipée""]","[2.6462567000000004, 49.816769399999998, 'Caix']","[2.6287896000000002, 49.842454700000005, 'Guillaucourt']",2.6287896,49.842454700000005,Guillaucourt
1 CAVALRY DIVISION: 9 (Queen's Royal) Lancers,1918-08-09,374 375 376 377,AWD00001mg AWD00001re AWD00001q5 AWD00001xg,Caix,Vrely,Meharicourt,activity:line,4.0,"[2.6462567000000004, 49.816769399999998, 'Caix']","[2.6948099999999999, 49.798900000000003, 'Vrely']","[2.7319599999999999, 49.797710000000002, 'Meharicourt']","[2.6462567000000004, 49.816769399999998, 'Caix']",2.6462567000000004,49.8167694,Caix
1 CAVALRY DIVISION: 9 (Queen's Royal) Lancers,1918-08-21,379 380,AWD00001ti AWD00001mw,Jewel Valley,Calveley Copse,Courcelles,activity:line,2.0,,"[-0.80523030000000007, 51.042194700000003, 'Woodfield Copse']","[2.7741831000000001, 50.163614000000003, 'Courcelles-le-Comte']","[-0.80523030000000007, 51.042194700000003, 'Woodfield Copse']",-0.8052303000000001,51.0421947,Woodfield Copse
1 CAVALRY DIVISION: 9 (Queen's Royal) Lancers,1918-10-02,387,AWD00001pn,Villeret,Hamelet,,activity:line,1.0,"[3.1938889000000001, 49.953055600000006, 'Villeret']","[3.0774468999999995, 49.938695299999999, 'Hamelet']",,"[3.1938889000000001, 49.953055600000006, 'Villeret']",3.1938889,49.953055600000006,Villeret
1 CAVALRY DIVISION: 9 (Queen's Royal) Lancers,1918-10-03,387,AWD00001pn,Villeret,Riqueval,,activity:line,1.0,"[3.1938889000000001, 49.953055600000006, 'Villeret']",,,"[3.1938889000000001, 49.953055600000006, 'Villeret']",3.1938889,49.953055600000006,Villeret
1 CAVALRY DIVISION: 9 (Queen's Royal) Lancers,1918-12-05,403,AWD00001ob,Gemund,Pingsheim,Erp,activity:line,1.0,"[6.4977478, 50.574672799999995, 'Gemünd']","[6.6942974, 50.797587399999998, 'Pingsheim']","[6.7225100000000007, 50.766819399999996, 'Erp']","[6.4977478, 50.574672799999995, 'Gemünd']",6.4977478,50.574672799999995,Gemünd
1 CAVALRY DIVISION: 9 (Queen's Royal) Lancers,1914-08-15,4,AWD00001wz,,Southampton,Tidworth,activity:movement,9.0,,"[-1.3990404834636501, 50.913797799999998, 'Southampton']","[-1.6638892999999999, 51.244745600000002, 'Tidworth']","[-1.3990404834636501, 50.913797799999998, 'Southampton']",-1.39904048346365,50.9137978,Southampton
1 CAVALRY DIVISION: 9 (Queen's Royal) Lancers,1914-08-16,4,AWD00001wz,Boulogne,,,activity:movement,8.0,"[-1.3207156999999998, 46.794508499999999, 'Boulogne']",,,"[-1.3207156999999998, 46.794508499999999, 'Boulogne']",-1.3207156999999998,46.7945085,Boulogne
